<?xml version="1.0" encoding="UTF-8" ?>
<root>
  <row>
    <address>г.Майкоп, Хакурате, 654 </address>
    <latitude>44.62423</latitude>
    <longtitude>40.05552</longtitude>
    <name>01023</name>
    <country>RU</country>
    <phone>(8772) 53-46-05</phone>
    <region>Республика Адыгея</region>
  </row>
  <row>
    <address>г.Майкоп, Батарейная, 385 А</address>
    <latitude>44.57913</latitude>
    <longtitude>40.1366</longtitude>
    <name>01024</name>
    <country>RU</country>
    <phone>(8772) 56-38-20</phone>
    <region>Республика Адыгея</region>
  </row>
  <row>
    <address>г.Майкоп, Келермесское ш., 5</address>
    <latitude>44.62882</latitude>
    <longtitude>40.11182</longtitude>
    <name>01025</name>
    <country>RU</country>
    <phone>(8772) 53-98-80</phone>
    <region>Республика Адыгея</region>
  </row>
  <row>
    <address>г.Майкоп, Хакурате,194</address>
    <latitude>44.61678</latitude>
    <longtitude>40.11558</longtitude>
    <name>01026</name>
    <country>RU</country>
    <phone>(8772) 54-88-75</phone>
    <region>Республика Адыгея</region>
  </row>
  <row>
    <address>г.Майкоп, ул.Шоссейная, квартал 407</address>
    <latitude>44.5678</latitude>
    <longtitude>40.13962</longtitude>
    <name>01027</name>
    <country>RU</country>
    <phone>(8772) 54-00-61</phone>
    <region>Республика Адыгея</region>
  </row>
  <row>
    <address>с. Красногвардейское, ул. Фестивальная, 3</address>
    <latitude>45.14407</latitude>
    <longtitude>39.60295</longtitude>
    <name>01028</name>
    <country>RU</country>
    <phone>(87778) 5-21-54</phone>
    <region>Республика Адыгея</region>
  </row>
  <row>
    <address>ст. Дондуковская, Желзнодорожная, 18, Гиагинский р-н</address>
    <latitude>44.9034</latitude>
    <longtitude>40.3543</longtitude>
    <name>01030</name>
    <country>RU</country>
    <phone>8 (918) 092-28-79</phone>
    <region>Республика Адыгея</region>
  </row>
  <row>
    <address>ст. Кужорская на трассе Майкоп-Лабинск</address>
    <latitude>44.64818</latitude>
    <longtitude>40.2921</longtitude>
    <name>01031</name>
    <country>RU</country>
    <phone>8 (918) 247-94-88</phone>
    <region>Республика Адыгея</region>
  </row>
  <row>
    <address>п. Каменномостский, ул. Мира, 1</address>
    <latitude>44.3025</latitude>
    <longtitude>40.18855</longtitude>
    <name>01032</name>
    <country>RU</country>
    <phone>(87777) 5-31-41</phone>
    <region>Республика Адыгея</region>
  </row>
  <row>
    <address>а.Кошехабль, ул.Дружбы народов, 84, Кошехабльский р-н</address>
    <latitude>44.90218</latitude>
    <longtitude>40.47625</longtitude>
    <name>01033</name>
    <country>RU</country>
    <phone>8 (918) 092-33-98</phone>
    <region>Республика Адыгея</region>
  </row>
  <row>
    <address>1353 км трассы Москва-Новороссийск, участок Краснодар-Джубга, справа, г.Адыгейск, 16 км от поворота на г.Краснодар</address>
    <latitude>44.89548</latitude>
    <longtitude>39.16577</longtitude>
    <name>01034</name>
    <country>RU</country>
    <phone>(861) 240-80-98</phone>
    <region>Республика Адыгея</region>
  </row>
  <row>
    <address>п.Энем на трассе Краснодар-Новороссийск , справа при движении от г.Новороссийск</address>
    <latitude>44.90862</latitude>
    <longtitude>38.8825</longtitude>
    <name>01035</name>
    <country>RU</country>
    <phone>(861)-240-80-82</phone>
    <region>Республика Адыгея</region>
  </row>
  <row>
    <address>п. Энем на трассе Краснодар - Новороссийск </address>
    <latitude>44.94992</latitude>
    <longtitude>38.92487</longtitude>
    <name>01109</name>
    <country>RU</country>
    <phone>(861) 240-90-07</phone>
    <region>Республика Адыгея</region>
  </row>
  <row>
    <address>п. Яблоновский, Тургеневское шоссе 32, трасса Краснодар Новороссийск, слева напротив, торгового центра Мега</address>
    <latitude>45.00765</latitude>
    <longtitude>38.93187</longtitude>
    <name>01155</name>
    <country>RU</country>
    <phone>8 (861) 240-80-99</phone>
    <region>Республика Адыгея</region>
  </row>
  <row>
    <address>Теучежский район, А/М Дон, справа км 1347-450м</address>
    <latitude>44.94397</latitude>
    <longtitude>39.12667</longtitude>
    <name>01159</name>
    <country>RU</country>
    <phone>89882454086</phone>
    <region>Республика Адыгея</region>
  </row>
  <row>
    <address>г. Майкоп, ул. Подлесная,25</address>
    <latitude>44.58963</latitude>
    <longtitude>40.09867</longtitude>
    <name>01183</name>
    <country>RU</country>
    <phone>(8772)521815</phone>
    <region>Республика Адыгея</region>
  </row>
  <row>
    <address>Теучежский район, с. Красная, вдоль а/д «Энем-Адыгейск-Бжедугхабль» км 54+00 (справа)</address>
    <latitude>44.8749</latitude>
    <longtitude>39.452</longtitude>
    <name>01190</name>
    <country>RU</country>
    <phone>89882454367</phone>
    <region>Республика Адыгея</region>
  </row>
  <row>
    <address>а/д Майкоп - Усть-Лабинск, км 53 + 120, слева, аул Бжедугхабль</address>
    <latitude>44.981465</latitude>
    <longtitude>39.717984</longtitude>
    <name>01199</name>
    <country>RU</country>
    <phone>8 (988) 381-50-88</phone>
    <region>Республика Адыгея</region>
  </row>
  <row>
    <address>ст. Ханская, а/д Белореченск-Майкоп, справа при въезде со стороны Белореченска</address>
    <latitude>44.69379</latitude>
    <longtitude>39.94462</longtitude>
    <name>01207</name>
    <country>RU</country>
    <phone>8 (988) 381-50-70</phone>
    <region>Республика Адыгея</region>
  </row>
  <row>
    <address>Тахтамукайский районн, Автотрасса А-146 1-3 км. Справа</address>
    <latitude>44.947908</latitude>
    <longtitude>39.033946</longtitude>
    <name>01263</name>
    <country>RU</country>
    <phone>8 (989) 858-67-02</phone>
    <region>Республика Адыгея</region>
  </row>
  <row>
    <address>Тахтамукайский районн, a. Новая Адыгея, ул. Тургеневское шоссе 1/3</address>
    <latitude>45.02735</latitude>
    <longtitude>38.94479</longtitude>
    <name>01266</name>
    <country>RU</country>
    <phone>8 (87771) 4-69-13</phone>
    <region>Республика Адыгея</region>
  </row>
  <row>
    <address>с. Уптино, 1448 км трассы М5</address>
    <latitude>54.656971</latitude>
    <longtitude>55.697422</longtitude>
    <name>02003 АЗС 3</name>
    <country>RU</country>
    <phone>8-901-811-30-16</phone>
    <region>Республика Башкортостан</region>
  </row>
  <row>
    <address>д. Березовка, ул. Аэропорт, 1/4</address>
    <latitude>54.567136</latitude>
    <longtitude>55.887933</longtitude>
    <name>02004 АЗС 4</name>
    <country>RU</country>
    <phone>(347)279-50-69</phone>
    <region>Республика Башкортостан</region>
  </row>
  <row>
    <address>г. Уфа, ул. С.Перовской, 30</address>
    <latitude>54.698926</latitude>
    <longtitude>55.984407</longtitude>
    <name>02005 АЗС 5</name>
    <country>RU</country>
    <phone>(347) 289-55-59</phone>
    <region>Республика Башкортостан</region>
  </row>
  <row>
    <address>г. Октябрьский, пр. Ленина, 3а (29 микрорайон)</address>
    <latitude>54.482061</latitude>
    <longtitude>53.507675</longtitude>
    <name>02006 АЗС 6</name>
    <country>RU</country>
    <phone>(34767)  4-02-92</phone>
    <region>Республика Башкортостан</region>
  </row>
  <row>
    <address>п. Верхнеяркеево, ул. Бакалинская, 6</address>
    <latitude>55.439112</latitude>
    <longtitude>54.301589</longtitude>
    <name>02007 АЗС 7</name>
    <country>RU</country>
    <phone>(34762) 5-11-23</phone>
    <region>Республика Башкортостан</region>
  </row>
  <row>
    <address>г. Белебей, 1316 км трассы М5, пер. Туймазы-Белебей</address>
    <latitude>54.485791</latitude>
    <longtitude>53.900706</longtitude>
    <name>02008 АЗС 8</name>
    <country>RU</country>
    <phone>8-901-811-83-98</phone>
    <region>Республика Башкортостан</region>
  </row>
  <row>
    <address>д. Тюменяк, ул. Клубная, 2/1</address>
    <latitude>54.683635</latitude>
    <longtitude>53.790832</longtitude>
    <name>02010 АЗС 10</name>
    <country>RU</country>
    <phone>(347 82) 3-33-81</phone>
    <region>Республика Башкортостан</region>
  </row>
  <row>
    <address>г. Уфа, пр. Октября, 1</address>
    <latitude>54.739865</latitude>
    <longtitude>55.984005</longtitude>
    <name>02012 АЗС 12</name>
    <country>RU</country>
    <phone>(347) 223-14-87</phone>
    <region>Республика Башкортостан</region>
  </row>
  <row>
    <address>г. Уфа, ул. Донского, 8</address>
    <latitude>54.825019</latitude>
    <longtitude>56.096454</longtitude>
    <name>02013 АЗС 13</name>
    <country>RU</country>
    <phone>(347) 2 64-52-27</phone>
    <region>Республика Башкортостан</region>
  </row>
  <row>
    <address>г. Мелеуз, ул. Береговая, 28</address>
    <latitude>52.96326058</latitude>
    <longtitude>55.950231</longtitude>
    <name>02016 АЗС 16</name>
    <country>RU</country>
    <phone>(34764) 4-08-30</phone>
    <region>Республика Башкортостан</region>
  </row>
  <row>
    <address>п. Дюртюли, ул. Садовая, 4</address>
    <latitude>55.497479204</latitude>
    <longtitude>54.85497235</longtitude>
    <name>02017 АЗС 17</name>
    <country>RU</country>
    <phone>(34717)  3-20-50</phone>
    <region>Республика Башкортостан</region>
  </row>
  <row>
    <address>г. Туймазы, ул. Салавата Юлаева, 2</address>
    <latitude>54.615423</latitude>
    <longtitude>53.689622</longtitude>
    <name>02018 АЗС 18</name>
    <country>RU</country>
    <phone>(34782)  7-69-74</phone>
    <region>Республика Башкортостан</region>
  </row>
  <row>
    <address>п. Зирган, ул. Революционеров, 147-149</address>
    <latitude>53.23178679</latitude>
    <longtitude>55.91041088</longtitude>
    <name>02019 АЗС 19</name>
    <country>RU</country>
    <phone>(34764) 6-13-00</phone>
    <region>Республика Башкортостан</region>
  </row>
  <row>
    <address>г. Нефтекамск, ул. Энергетиков, 2</address>
    <latitude>56.102853</latitude>
    <longtitude>54.24154</longtitude>
    <name>02020 АЗС 20</name>
    <country>RU</country>
    <phone>(34783)  5-60-67 </phone>
    <region>Республика Башкортостан</region>
  </row>
  <row>
    <address>п. Витаминный, ул. Энергетиков, 2</address>
    <latitude>55.283802</latitude>
    <longtitude>58.118528</longtitude>
    <name>02021 АЗС 21</name>
    <country>RU</country>
    <phone>(34777) 2-84-69</phone>
    <region>Республика Башкортостан</region>
  </row>
  <row>
    <address>п. Кушнаренково, ул. Большевистская, 61.</address>
    <latitude>55.1009168855</latitude>
    <longtitude>55.332593813</longtitude>
    <name>02022 АЗС 22</name>
    <country>RU</country>
    <phone>(34780)5-81-97</phone>
    <region>Республика Башкортостан</region>
  </row>
  <row>
    <address>г. Туймазы, ул. Гафурова, 41</address>
    <latitude>54.598687</latitude>
    <longtitude>53.730693</longtitude>
    <name>02023 АЗС 23</name>
    <country>RU</country>
    <phone>(34782) 2-41-40</phone>
    <region>Республика Башкортостан</region>
  </row>
  <row>
    <address>г. Белебей, шоссе Нефтяников, 5</address>
    <latitude>54.112898</latitude>
    <longtitude>54.073247</longtitude>
    <name>02024 АЗС 24</name>
    <country>RU</country>
    <phone>(34786) 4-07-05</phone>
    <region>Республика Башкортостан</region>
  </row>
  <row>
    <address>г. Уфа, 30 км трассы Уфа-Бирск</address>
    <latitude>54.936616</latitude>
    <longtitude>56.080302</longtitude>
    <name>02025 АЗС 25</name>
    <country>RU</country>
    <phone>(347)274-42-96</phone>
    <region>Республика Башкортостан</region>
  </row>
  <row>
    <address>г. Нефтекамск, ул. Карла Маркса, 13</address>
    <latitude>56.080382</latitude>
    <longtitude>54.238791</longtitude>
    <name>02027 АЗС 27</name>
    <country>RU</country>
    <phone>(34783) 4-72-77 </phone>
    <region>Республика Башкортостан</region>
  </row>
  <row>
    <address>Пос. Биладжари, шоссе Баку-Сумгаит</address>
    <latitude>40.433521</latitude>
    <longtitude>49.784396</longtitude>
    <name>AZS 4А</name>
    <country>AZ</country>
    <phone>-</phone>
    <region>Баку</region>
  </row>
  <row>
    <address>г. Стерлитамак, ул. Профсоюзная, 26</address>
    <latitude>53.649679</latitude>
    <longtitude>55.9795</longtitude>
    <name>02030 АЗС 30</name>
    <country>RU</country>
    <phone>(3473) 28-19-58</phone>
    <region>Республика Башкортостан</region>
  </row>
  <row>
    <address>п. Улу-Теляк, 1548 км трассы М6 (Иглинский р-н)</address>
    <latitude>54.854221</latitude>
    <longtitude>57.130257</longtitude>
    <name>02031 АЗС 31</name>
    <country>RU</country>
    <phone>8-917-752-60-08</phone>
    <region>Республика Башкортостан</region>
  </row>
  <row>
    <address>с. Бакалы, ул. Мостовая, 12</address>
    <latitude>55.17360867</latitude>
    <longtitude>53.80947946</longtitude>
    <name>02032 АЗС 32</name>
    <country>RU</country>
    <phone>(34742)  2-26-46</phone>
    <region>Республика Башкортостан</region>
  </row>
  <row>
    <address>г. Уфа, ул. Правды</address>
    <latitude>54.703951</latitude>
    <longtitude>55.847105</longtitude>
    <name>02033 АЗС 33</name>
    <country>RU</country>
    <phone>(347)281-37-85</phone>
    <region>Республика Башкортостан</region>
  </row>
  <row>
    <address>г. Белебей, 1350 км трассы М5 Москва-Самара-Уфа-Челябинск</address>
    <latitude>54.588101</latitude>
    <longtitude>54.268204</longtitude>
    <name>02035 АЗС 35</name>
    <country>RU</country>
    <phone>08 (347) 5035</phone>
    <region>Республика Башкортостан</region>
  </row>
  <row>
    <address>п. Красноусольский, 3-й км Красноусольск-Табынск</address>
    <latitude>53.9331</latitude>
    <longtitude>56.419901</longtitude>
    <name>02041 АЗС 41</name>
    <country>RU</country>
    <phone>8-901-811-83-68</phone>
    <region>Республика Башкортостан</region>
  </row>
  <row>
    <address>п. Удельных Дуваней, на въезде</address>
    <latitude>55.176743</latitude>
    <longtitude>55.853284</longtitude>
    <name>02042 АЗС 42</name>
    <country>RU</country>
    <phone>8-901-811-83-95</phone>
    <region>Республика Башкортостан</region>
  </row>
  <row>
    <address>г. Стерлитамак, ул. Салтыкова-Щедрина, 2в</address>
    <latitude>53.622062</latitude>
    <longtitude>55.932695</longtitude>
    <name>02050 АЗС 50</name>
    <country>RU</country>
    <phone>(34782)2-50-70</phone>
    <region>Республика Башкортостан</region>
  </row>
  <row>
    <address>с. Верхние  Татышлы, ул. Центральная, 51</address>
    <latitude>56.291630346</latitude>
    <longtitude>55.832812373</longtitude>
    <name>02051 АЗС 51</name>
    <country>RU</country>
    <phone>8-927-33-555-25</phone>
    <region>Республика Башкортостан</region>
  </row>
  <row>
    <address>г. Стерлитамак, Уфимский тракт, 8</address>
    <latitude>53.68539368</latitude>
    <longtitude>55.949297804</longtitude>
    <name>02057 АЗС 57-У</name>
    <country>RU</country>
    <phone>(34723) 21-56-73</phone>
    <region>Республика Башкортостан</region>
  </row>
  <row>
    <address>г. Стерлитамак, ул. 23 Мая, 155а</address>
    <latitude>53.61627548</latitude>
    <longtitude>55.93199761</longtitude>
    <name>02058 АЗС 58-У</name>
    <country>RU</country>
    <phone>(34723) 25-23-74</phone>
    <region>Республика Башкортостан</region>
  </row>
  <row>
    <address>г. Салават, ул. Чапаева, 42</address>
    <latitude>53.379533</latitude>
    <longtitude>55.937426</longtitude>
    <name>02069 АЗС 69</name>
    <country>RU</country>
    <phone>8-901-811-84-29</phone>
    <region>Республика Башкортостан</region>
  </row>
  <row>
    <address>п. Алаторка, 1499 км трассы М5</address>
    <latitude>54.762175</latitude>
    <longtitude>56.395246</longtitude>
    <name>02073 АЗС а02073</name>
    <country>RU</country>
    <phone>8-901-812-044-7</phone>
    <region>Республика Башкортостан</region>
  </row>
  <row>
    <address>г. Стерлитамак, ул. Техничникова, 2</address>
    <latitude>53.66257546</latitude>
    <longtitude>55.95002174</longtitude>
    <name>02074 АЗС 74-У</name>
    <country>RU</country>
    <phone>(3473) 43-65-16</phone>
    <region>Республика Башкортостан</region>
  </row>
  <row>
    <address>г. Нефтекамск, ул. Автозаводская, 26</address>
    <latitude>56.106744</latitude>
    <longtitude>54.305773</longtitude>
    <name>02082 АЗС а0282-У</name>
    <country>RU</country>
    <phone>8-901-812-82-86</phone>
    <region>Республика Башкортостан</region>
  </row>
  <row>
    <address>г. Стерлитамак, Стерлибашевский тракт, 30</address>
    <latitude>53.601095536</latitude>
    <longtitude>55.930621325</longtitude>
    <name>02083 АЗС 83-У</name>
    <country>RU</country>
    <phone>(347 3) 26-99-72</phone>
    <region>Республика Башкортостан</region>
  </row>
  <row>
    <address>г. Учалы, на въезде</address>
    <latitude>54.32963989</latitude>
    <longtitude>59.36661844</longtitude>
    <name>02084 АЗС 84-У</name>
    <country>RU</country>
    <phone>(34791) 6-69-39</phone>
    <region>Республика Башкортостан</region>
  </row>
  <row>
    <address>п. Акбердено, на въезде</address>
    <latitude>54.607392</latitude>
    <longtitude>56.184276</longtitude>
    <name>02092 АЗС 92-У</name>
    <country>RU</country>
    <phone>8-917-780-20-80</phone>
    <region>Республика Башкортостан</region>
  </row>
  <row>
    <address>г. Салават, Северный въезд в город</address>
    <latitude>53.41306619</latitude>
    <longtitude>55.928694611</longtitude>
    <name>02094 АЗС 94</name>
    <country>RU</country>
    <phone>8-987-62-01-337</phone>
    <region>Республика Башкортостан</region>
  </row>
  <row>
    <address>п. Рощенский, на въезде</address>
    <latitude>53.753238359</latitude>
    <longtitude>55.943285023</longtitude>
    <name>02095 АЗС 95</name>
    <country>RU</country>
    <phone>8-901-811-83-68</phone>
    <region>Республика Башкортостан</region>
  </row>
  <row>
    <address>г. Уфа, ул. Гвардейская</address>
    <latitude>54.7696</latitude>
    <longtitude>56.23244</longtitude>
    <name>02096 АЗС 96</name>
    <country>RU</country>
    <phone>(34795)267-13-29</phone>
    <region>Республика Башкортостан</region>
  </row>
  <row>
    <address>д. Карпова, Каменная переправа</address>
    <latitude>54.65986</latitude>
    <longtitude>56.082891</longtitude>
    <name>02097 АЗС 97</name>
    <country>RU</country>
    <phone>8-961-047-33-31</phone>
    <region>Республика Башкортостан</region>
  </row>
  <row>
    <address>г. Уфа, ул. Сагита Агиша 2/1 </address>
    <latitude>54.726325</latitude>
    <longtitude>55.991874</longtitude>
    <name>02098 АЗС 98</name>
    <country>RU</country>
    <phone>89174813333</phone>
    <region>Республика Башкортостан</region>
  </row>
  <row>
    <address>г. Уфа, ул. Ферина, 2</address>
    <latitude>54.796924</latitude>
    <longtitude>56.13077</longtitude>
    <name>02127 АЗС 127</name>
    <country>RU</country>
    <phone>(347)239-73-84</phone>
    <region>Республика Башкортостан</region>
  </row>
  <row>
    <address>г. Уфа, Индустриальное ш., 114/1</address>
    <latitude>54.797961</latitude>
    <longtitude>56.120165</longtitude>
    <name>02128 АЗС 128</name>
    <country>RU</country>
    <phone>(347) 239-01-11</phone>
    <region>Республика Башкортостан</region>
  </row>
  <row>
    <address>г. Уфа, пересеч. ул.Шафиева и пр.Октября</address>
    <latitude>54.761172</latitude>
    <longtitude>56.01051</longtitude>
    <name>02129 АЗС 129</name>
    <country>RU</country>
    <phone>89174401599</phone>
    <region>Республика Башкортостан</region>
  </row>
  <row>
    <address>г. Уфа, ул. Маршала Жукова, 27</address>
    <latitude>54.770605</latitude>
    <longtitude>56.056698</longtitude>
    <name>02130 АЗС 130</name>
    <country>RU</country>
    <phone></phone>
    <region>Республика Башкортостан</region>
  </row>
  <row>
    <address>г. Уфа, ул. Степана Кувыкина, 43</address>
    <latitude>54.712109</latitude>
    <longtitude>56.000423</longtitude>
    <name>02131 АЗС 131</name>
    <country>RU</country>
    <phone>(347)255-86-64</phone>
    <region>Республика Башкортостан</region>
  </row>
  <row>
    <address>г. Уфа, ул. Комсомольская пер. с ул.Тихорецкой</address>
    <latitude>54.751997</latitude>
    <longtitude>56.006921</longtitude>
    <name>02132 АЗС 132</name>
    <country>RU</country>
    <phone>89378312080</phone>
    <region>Республика Башкортостан</region>
  </row>
  <row>
    <address>п. Цветы Башкирии, 1466 км. Трасса М5</address>
    <latitude>54.647224</latitude>
    <longtitude>55.920133</longtitude>
    <name>02134 АЗС 134</name>
    <country>RU</country>
    <phone>89373003274</phone>
    <region>Республика Башкортостан</region>
  </row>
  <row>
    <address>с. Чесноковка, ул. Аэропортная д.0</address>
    <latitude>54.622518</latitude>
    <longtitude>55.928006</longtitude>
    <name>02136 АЗС 136</name>
    <country>RU</country>
    <phone>(347)275-09-30</phone>
    <region>Республика Башкортостан</region>
  </row>
  <row>
    <address>г. Уфа, Затонское шоссе</address>
    <latitude>54.764519</latitude>
    <longtitude>55.945809</longtitude>
    <name>02137 АЗС 137</name>
    <country>RU</country>
    <phone></phone>
    <region>Республика Башкортостан</region>
  </row>
  <row>
    <address>с. Иглино, ул. Горького, 16</address>
    <latitude>54.824234</latitude>
    <longtitude>56.391937</longtitude>
    <name>02199 АЗС 199</name>
    <country>RU</country>
    <phone>(347)295-232-66</phone>
    <region>Республика Башкортостан</region>
  </row>
  <row>
    <address>г. Нальчик, ул. Тарчокова, 58а</address>
    <latitude>43.48628</latitude>
    <longtitude>43.57298</longtitude>
    <name>07080</name>
    <country>RU</country>
    <phone>8(9889302636</phone>
    <region>Кабардино-Балкарская республика</region>
  </row>
  <row>
    <address>515 км трассы &quot;Кавказ&quot;,  напротив АЗС №82</address>
    <latitude>43.92635</latitude>
    <longtitude>43.18253</longtitude>
    <name>07081</name>
    <country>RU</country>
    <phone>8(8652)916550</phone>
    <region>Кабардино-Балкарская республика</region>
  </row>
  <row>
    <address>515 км трассы &quot;Кавказ&quot;,  Зольский район, напротив АЗС №81</address>
    <latitude>43.9267</latitude>
    <longtitude>43.18425</longtitude>
    <name>07082</name>
    <country>RU</country>
    <phone>8(8652)468181</phone>
    <region>Кабардино-Балкарская республика</region>
  </row>
  <row>
    <address>г. Нальчик, ул. Осетинская, 1</address>
    <latitude>43.4795</latitude>
    <longtitude>43.6263</longtitude>
    <name>07101</name>
    <country>RU</country>
    <phone>8(8662)772504</phone>
    <region>Кабардино-Балкарская республика</region>
  </row>
  <row>
    <address>г. Прохладный, ул. Головко 104</address>
    <latitude>43.75687</latitude>
    <longtitude>44.02823</longtitude>
    <name>07158</name>
    <country>RU</country>
    <phone>88663144903</phone>
    <region>Кабардино-Балкарская республика</region>
  </row>
  <row>
    <address>с. Чегем 2, ул. Баканское Шоссе, федеральная дорого &quot;Кавказ&quot; 442 км.+800 м.</address>
    <latitude>43.577694</latitude>
    <longtitude>43.582282</longtitude>
    <name>07165</name>
    <country>RU</country>
    <phone>8(988)9308053</phone>
    <region>Кабардино-Балкарская республика</region>
  </row>
  <row>
    <address>г. Нальчик, ул. Кабардинская</address>
    <latitude>43.50853</latitude>
    <longtitude>43.64212</longtitude>
    <name>07173</name>
    <country>RU</country>
    <phone>988-930-27-86</phone>
    <region>Кабардино-Балкарская республика</region>
  </row>
  <row>
    <address>г. Нальчик, ул. 2 Таманской дивизии</address>
    <latitude>43.48425</latitude>
    <longtitude>43.64503</longtitude>
    <name>07177</name>
    <country>RU</country>
    <phone>89889302763</phone>
    <region>Кабардино-Балкарская республика</region>
  </row>
  <row>
    <address>Федеральная трасса кавказ 448 км, въезд со стороны г.Чегема</address>
    <latitude>43.53273</latitude>
    <longtitude>43.6054</longtitude>
    <name>07186</name>
    <country>RU</country>
    <phone>88662753900</phone>
    <region>Кабардино-Балкарская республика</region>
  </row>
  <row>
    <address>г. Нарткала, Урванский р-н, ул. Красная, угол Тарчокова</address>
    <latitude>43.53547</latitude>
    <longtitude>43.84355</longtitude>
    <name>07198</name>
    <country>RU</country>
    <phone>866-35-2-81-19</phone>
    <region>Кабардино-Балкарская республика</region>
  </row>
  <row>
    <address>г.Прохладный, улица Первомайская 3</address>
    <latitude>43.76767</latitude>
    <longtitude>44.03485</longtitude>
    <name>07205</name>
    <country>RU</country>
    <phone>86631-4-50-49</phone>
    <region>Кабардино-Балкарская республика</region>
  </row>
  <row>
    <address>г.Терек, ул.Ленина, р-н Автовокзала</address>
    <latitude>43.49231</latitude>
    <longtitude>44.15092</longtitude>
    <name>07206</name>
    <country>RU</country>
    <phone>86632-4-11-28</phone>
    <region>Кабардино-Балкарская республика</region>
  </row>
  <row>
    <address>село Анзорей, М-29, 643 км. (справа)</address>
    <latitude>43.36316</latitude>
    <longtitude>43.96803</longtitude>
    <name>07235</name>
    <country>RU</country>
    <phone>86639-9-52-27</phone>
    <region>Кабардино-Балкарская республика</region>
  </row>
  <row>
    <address>г. Элиста, ул. Ленина, 270</address>
    <latitude>46.31176</latitude>
    <longtitude>44.293667</longtitude>
    <name>08540</name>
    <country>RU</country>
    <phone>8 (84722) 4-08-40, 4-08-39</phone>
    <region>Республика Калмыкия</region>
  </row>
  <row>
    <address>г. Элиста, ул. Ленина, 199</address>
    <latitude>46.313738</latitude>
    <longtitude>44.22821</longtitude>
    <name>08541</name>
    <country>RU</country>
    <phone>8-918-349-0087</phone>
    <region>Республика Калмыкия</region>
  </row>
  <row>
    <address>г. Элиста, Северная промышленная зона - 2, 29</address>
    <latitude>46.337258</latitude>
    <longtitude>44.259936</longtitude>
    <name>08542</name>
    <country>RU</country>
    <phone>8-918-349-0223</phone>
    <region>Республика Калмыкия</region>
  </row>
  <row>
    <address>Республика Калмыкия, с. Кетченеры, 120-й км трассы Волгоград - Элиста, справа при движении от г. Волгоград.</address>
    <latitude>47.29731</latitude>
    <longtitude>44.57156</longtitude>
    <name>08543</name>
    <country>RU</country>
    <phone>8 (84735) 91694</phone>
    <region>Республика Калмыкия</region>
  </row>
  <row>
    <address>Республика Калмыкия, с.Садовое, 90-й км трассы Волгоград - Элиста, справа при движении от Волгограда.</address>
    <latitude>47.777005</latitude>
    <longtitude>44.534272</longtitude>
    <name>08544</name>
    <country>RU</country>
    <phone>8 (84741) 21256</phone>
    <region>Республика Калмыкия</region>
  </row>
  <row>
    <address>Республика Калмыкия, с. Малые Дербеты, 70-й км трассы Волгоград - Элиста, справа при движении от Волгограда/</address>
    <latitude>47.983477</latitude>
    <longtitude>44.697136</longtitude>
    <name>08545</name>
    <country>RU</country>
    <phone>8 (84734) 91399</phone>
    <region>Республика Калмыкия</region>
  </row>
  <row>
    <address>г. Элиста, 316 км а/д Астрахань-Элиста-Ставрополь</address>
    <latitude>46.285</latitude>
    <longtitude>44.169853</longtitude>
    <name>08546</name>
    <country>RU</country>
    <phone>8-918-349-0435</phone>
    <region>Республика Калмыкия</region>
  </row>
  <row>
    <address>г. Черкесск, ул. Гутякулова, 5</address>
    <latitude>44.248708</latitude>
    <longtitude>42.056251</longtitude>
    <name>09094</name>
    <country>RU</country>
    <phone>8(8782)211102</phone>
    <region>Карачаево-Черкесская республика</region>
  </row>
  <row>
    <address>Аул Псыж, ул. Победы, 12, вьезд со стороны г.Невинномысска</address>
    <latitude>44.21812</latitude>
    <longtitude>42.01922</longtitude>
    <name>09114</name>
    <country>RU</country>
    <phone>8(87822)98995</phone>
    <region>Карачаево-Черкесская республика</region>
  </row>
  <row>
    <address>г. Черкесск ул. Доватора, 71</address>
    <latitude>44.20475</latitude>
    <longtitude>42.05955</longtitude>
    <name>09117</name>
    <country>RU</country>
    <phone>87822-0-60-52</phone>
    <region>Карачаево-Черкесская республика</region>
  </row>
  <row>
    <address>г. Черкесск, ул. Октябрьская, 87 - ул. Энгельса, 2</address>
    <latitude>44.21537</latitude>
    <longtitude>42.03585</longtitude>
    <name>09184</name>
    <country>RU</country>
    <phone>78782207776</phone>
    <region>Карачаево-Черкесская республика</region>
  </row>
  <row>
    <address>г. Черкесск, ул. Набережная, 86</address>
    <latitude>44.22922</latitude>
    <longtitude>42.0637</longtitude>
    <name>09185</name>
    <country>RU</country>
    <phone>8 (8782) 28-13-10</phone>
    <region>Карачаево-Черкесская республика</region>
  </row>
  <row>
    <address>г. Карачаевск, ул. Крымшамхалова, 21а</address>
    <latitude>43.78585</latitude>
    <longtitude>41.91158</longtitude>
    <name>09197</name>
    <country>RU</country>
    <phone>89897897674</phone>
    <region>Карачаево-Черкесская Республика</region>
  </row>
  <row>
    <address>ст. Зеленчукская а/д Черкесск-Архыз 23+714 </address>
    <latitude>43.855175</latitude>
    <longtitude>41.611987</longtitude>
    <name>09265</name>
    <country>RU</country>
    <phone>989-783-58-39, 87878-5-36-00</phone>
    <region>Карачаево-Черкесская Республика</region>
  </row>
  <row>
    <address>г. Минск, ул. Лещинского, д.2</address>
    <latitude>53.907319</latitude>
    <longtitude>27.454727</longtitude>
    <name>1</name>
    <country>BY</country>
    <phone>(86392) 7-79-01</phone>
    <region>Ростовская область</region>
  </row>
  <row>
    <address>Минская обл., Солигорский р-н, г. Солигорск, ул. Кольцевая, 1</address>
    <latitude>52.794199</latitude>
    <longtitude>27.516266</longtitude>
    <name>10</name>
    <country>BY</country>
    <phone>-</phone>
    <region>Минская область</region>
  </row>
  <row>
    <address>Лахденпохский р-н., г. Лахденпохья, Ленинградское ш., д. 58 А (справа при движении от г. Сортавала в СПб)</address>
    <latitude>61.51733</latitude>
    <longtitude>30.142439</longtitude>
    <name>10004</name>
    <country>RU</country>
    <phone>88145022626</phone>
    <region>Республика Карелия</region>
  </row>
  <row>
    <address>Сортавальский р-н., г. Сортавала, Выборгское ш., д. 28</address>
    <latitude>61.69246</latitude>
    <longtitude>30.67328</longtitude>
    <name>10010</name>
    <country>RU</country>
    <phone>88143047671</phone>
    <region>Республика Карелия</region>
  </row>
  <row>
    <address>Петрозаводск, Лесной пр., 57</address>
    <latitude>61.78408</latitude>
    <longtitude>34.3026</longtitude>
    <name>10016</name>
    <country>RU</country>
    <phone>8 (8142) 72-51-29</phone>
    <region>Республика Карелия</region>
  </row>
  <row>
    <address>Сортавальский р-н., п. Пуйккола, Сортавальское ш., трасса Сортавала-Вяртсиля</address>
    <latitude>62.047945</latitude>
    <longtitude>30.681598</longtitude>
    <name>10032</name>
    <country>RU</country>
    <phone>88143034540</phone>
    <region>Республика Карелия</region>
  </row>
  <row>
    <address>Прионежский р-н, п. Новая Вилга, Пряжинское шоссе (на пересечении с а/м &quot;Кола&quot;)</address>
    <latitude>61.820778</latitude>
    <longtitude>34.145612</longtitude>
    <name>10191</name>
    <country>RU</country>
    <phone>8-921-01-01-326</phone>
    <region>Республика Карелия</region>
  </row>
  <row>
    <address>Петрозаводск, Лососинское ш., д. 48</address>
    <latitude>61.76119</latitude>
    <longtitude>34.30073</longtitude>
    <name>10199</name>
    <country>RU</country>
    <phone>88142564153</phone>
    <region>Республика Карелия</region>
  </row>
  <row>
    <address>Петрозаводск,Шуйское шоссе, д. 3</address>
    <latitude>61.80983</latitude>
    <longtitude>34.288885</longtitude>
    <name>10242</name>
    <country>RU</country>
    <phone>&#x27;8 (8142) 56-90-55, 8 (8142) 56-96-63 &#x27;</phone>
    <region>Республика Карелия</region>
  </row>
  <row>
    <address>Петрозаводск, ул. Правды, д. 23</address>
    <latitude>61.775482</latitude>
    <longtitude>34.393428</longtitude>
    <name>10243</name>
    <country>RU</country>
    <phone>88142573518</phone>
    <region>Республика Карелия</region>
  </row>
  <row>
    <address>г. Сегежа, ул. Северная</address>
    <latitude>63.740245</latitude>
    <longtitude>34.3016</longtitude>
    <name>10256</name>
    <country>RU</country>
    <phone>89212240982</phone>
    <region>Республика Карелия</region>
  </row>
  <row>
    <address> п. Ново-Талицы, 153км, автодорога Иваново-Тейково, у поста ГИБДД</address>
    <latitude>57.007237</latitude>
    <longtitude>40.851961</longtitude>
    <name>10 НП</name>
    <country>RU</country>
    <phone>(930) 355-50-76</phone>
    <region>Ивановская область</region>
  </row>
  <row>
    <address>Брестская обл., Брестский р-н, М1, 25-й км, 2</address>
    <latitude>52.122855</latitude>
    <longtitude>23.886779</longtitude>
    <name>11</name>
    <country>BY</country>
    <phone>-</phone>
    <region>Брестская область</region>
  </row>
  <row>
    <address>г. Сыктывкар, ул. Гаражная, 1/2</address>
    <latitude>61.65783</latitude>
    <longtitude>50.81146</longtitude>
    <name>11301</name>
    <country>RU</country>
    <phone>(8212) 29-36-28</phone>
    <region>Республика Коми</region>
  </row>
  <row>
    <address>г. Воркута, ул. Бульвар Пищевиков 3 Б</address>
    <latitude>67.49325</latitude>
    <longtitude>64.0629</longtitude>
    <name>11303</name>
    <country>RU</country>
    <phone>(82151) 4-17-93; (82151) 7-26-34</phone>
    <region>Республика Коми</region>
  </row>
  <row>
    <address>84 км трассы Сыктывкар – Киров, справа при движении от г. Сыктывкара, около с. Визинга, ул. Оплеснина, 49</address>
    <latitude>61.06287</latitude>
    <longtitude>50.09697</longtitude>
    <name>11304</name>
    <country>RU</country>
    <phone>(82131) 9-14-69</phone>
    <region>Республика Коми</region>
  </row>
  <row>
    <address>180 км трассы Сыктывкар – Киров, справа при движении от г.Сыктывкара, около с.Объячево</address>
    <latitude>60.3284</latitude>
    <longtitude>49.64257</longtitude>
    <name>11305</name>
    <country>RU</country>
    <phone>(82133) 2-13-53</phone>
    <region>Республика Коми</region>
  </row>
  <row>
    <address>г. Инта, ул. Мартовская</address>
    <latitude>66.037124</latitude>
    <longtitude>60.146293</longtitude>
    <name>11306</name>
    <country>RU</country>
    <phone>8 (82145) 6-52-00</phone>
    <region>Республика Коми</region>
  </row>
  <row>
    <address>г. Троицко-Печорск, с левой стороны на въезде в город</address>
    <latitude>62.7216</latitude>
    <longtitude>56.14333</longtitude>
    <name>11307</name>
    <country>RU</country>
    <phone>(82138) 9-74-91</phone>
    <region>Республика Коми</region>
  </row>
  <row>
    <address>108 км трассы Ухта – Троицко-Печорск, справа при движении от г. Ухты, на въезде в с. Вой-Вож</address>
    <latitude>62.89638</latitude>
    <longtitude>54.95062</longtitude>
    <name>11308</name>
    <country>RU</country>
    <phone>9129660728</phone>
    <region>Республика Коми</region>
  </row>
  <row>
    <address>г. Емва, ул. Дорожная, 19</address>
    <latitude>62.5709</latitude>
    <longtitude>50.85202</longtitude>
    <name>11309</name>
    <country>RU</country>
    <phone>(82139) 2-23-32</phone>
    <region>Республика Коми</region>
  </row>
  <row>
    <address>93 км трассы Сыктывкар - Усть-Кулом, справа при движении от с.Усть-Кулом, около с.Сторожевск</address>
    <latitude>61.968417</latitude>
    <longtitude>52.344927</longtitude>
    <name>11310</name>
    <country>RU</country>
    <phone>(82136) 9-11-15</phone>
    <region>Республика Коми</region>
  </row>
  <row>
    <address>с. Усть-Кулом, на въезде в село слева</address>
    <latitude>61.69538</latitude>
    <longtitude>53.75216</longtitude>
    <name>11311</name>
    <country>RU</country>
    <phone>(82137) 9-47-02; (82137) 9-23-05</phone>
    <region>Республика Коми</region>
  </row>
  <row>
    <address>г. Сосногорск, ул. Лесная, при въезде в г.Сосногорск с левой стороны </address>
    <latitude>63.579163</latitude>
    <longtitude>53.939115</longtitude>
    <name>11313</name>
    <country>RU</country>
    <phone>(82149) 5-47-03</phone>
    <region>Республика Коми</region>
  </row>
  <row>
    <address>г. Воркута, ул. Чехова, 2 А</address>
    <latitude>67.5323</latitude>
    <longtitude>64.09322</longtitude>
    <name>11316</name>
    <country>RU</country>
    <phone>(82151) 7-80-25</phone>
    <region>Республика Коми</region>
  </row>
  <row>
    <address>270 км трассы Сыктывкар – Киров, справа при движении от г.Кирова, около с.Летка</address>
    <latitude>59.59972</latitude>
    <longtitude>49.4063</longtitude>
    <name>11317</name>
    <country>RU</country>
    <phone>(82133) 4-11-42</phone>
    <region>Республика Коми</region>
  </row>
  <row>
    <address>г. Печора, ул. Островского, 63</address>
    <latitude>65.12933</latitude>
    <longtitude>57.18058</longtitude>
    <name>11318</name>
    <country>RU</country>
    <phone>(82142) 5-23-11</phone>
    <region>Республика Коми</region>
  </row>
  <row>
    <address>с. Койгородок,  180 км от г. Сыктывкара</address>
    <latitude>60.457581</latitude>
    <longtitude>51.01158</longtitude>
    <name>11319</name>
    <country>RU</country>
    <phone>(82132) 9-13-09</phone>
    <region>Республика Коми</region>
  </row>
  <row>
    <address>г. Сыктывкар, п. Эжва, ул.Калинина, 8/1</address>
    <latitude>61.8107</latitude>
    <longtitude>50.73635</longtitude>
    <name>11320</name>
    <country>RU</country>
    <phone>(8212) 627718</phone>
    <region>Республика Коми</region>
  </row>
  <row>
    <address>п. Нижний Одес, ул. Промысловая, 7</address>
    <latitude>63.64747</latitude>
    <longtitude>54.84533</longtitude>
    <name>11322</name>
    <country>RU</country>
    <phone>912-941-46-60    (82149) 2-22-91</phone>
    <region>Республика Коми</region>
  </row>
  <row>
    <address>с. Усть-Цильма, п. Сельхозтехника, 74 Б</address>
    <latitude>65.42552</latitude>
    <longtitude>52.18067</longtitude>
    <name>11323</name>
    <country>RU</country>
    <phone>(82141) 9-16-61</phone>
    <region>Республика Коми</region>
  </row>
  <row>
    <address>Ухта, п. Ярега ул. Заречная, 1 Б</address>
    <latitude>63.43415</latitude>
    <longtitude>53.54725</longtitude>
    <name>11324</name>
    <country>RU</country>
    <phone>9129661058</phone>
    <region>Республика Коми</region>
  </row>
  <row>
    <address>г. Микунь, ул. Мечникова, 77</address>
    <latitude>62.34188</latitude>
    <longtitude>50.07177</longtitude>
    <name>11325</name>
    <country>RU</country>
    <phone>(82134) 3-12-97</phone>
    <region>Республика Коми</region>
  </row>
  <row>
    <address>г. Воркута, ул Автозаводская, 12 </address>
    <latitude>67.49813</latitude>
    <longtitude>64.0931</longtitude>
    <name>11326</name>
    <country>RU</country>
    <phone>(82151) 6-12-41</phone>
    <region>Республика Коми</region>
  </row>
  <row>
    <address>г. Сыктывкар, м. Дырнос, 141</address>
    <latitude>61.679526</latitude>
    <longtitude>50.73835</longtitude>
    <name>11327</name>
    <country>RU</country>
    <phone>(8212) 43-87-65</phone>
    <region>Республика Коми</region>
  </row>
  <row>
    <address>г. Инта, п. Западный, ул. Геологическая, 6</address>
    <latitude>66.025452</latitude>
    <longtitude>60.082757</longtitude>
    <name>11329</name>
    <country>RU</country>
    <phone>(82145) 6-29-73</phone>
    <region>Республика Коми</region>
  </row>
  <row>
    <address>г. Ухта, VII квартал северо - западного р-на</address>
    <latitude>63.57115</latitude>
    <longtitude>53.635824</longtitude>
    <name>11330</name>
    <country>RU</country>
    <phone>(82147) 5-06-36</phone>
    <region>Республика Коми</region>
  </row>
  <row>
    <address>г.Ухта, ул. Севастопольская, 16 </address>
    <latitude>63.56789</latitude>
    <longtitude>53.70311</longtitude>
    <name>11332</name>
    <country>RU</country>
    <phone>(82147) 4-58-62</phone>
    <region>Республика Коми</region>
  </row>
  <row>
    <address>140 км трассы Сыктывкар-Ухта, г. Емва, Магистральный пр-д 3, объездная дорога, справа при движении от г.Сыктывкара</address>
    <latitude>62.618274</latitude>
    <longtitude>50.936689</longtitude>
    <name>11333</name>
    <country>RU</country>
    <phone>(82139) 2-28-01</phone>
    <region>Республика Коми</region>
  </row>
  <row>
    <address>п. Комсомольск-на-Печоре, ул.Дорожная, 3</address>
    <latitude>62.13473</latitude>
    <longtitude>56.59242</longtitude>
    <name>11335</name>
    <country>RU</country>
    <phone>9129660828</phone>
    <region>Республика Коми</region>
  </row>
  <row>
    <address>г. Вуктыл, промзона, ул.Таежная, 9</address>
    <latitude>63.835076</latitude>
    <longtitude>57.305646</longtitude>
    <name>11336</name>
    <country>RU</country>
    <phone>(82146) 2-24-03; (82146)2-21-95</phone>
    <region>Республика Коми</region>
  </row>
  <row>
    <address>п. Усогорск, ул. Дружбы, 54 </address>
    <latitude>63.4243</latitude>
    <longtitude>48.72369</longtitude>
    <name>11337</name>
    <country>RU</country>
    <phone>(82135) 5-19-89</phone>
    <region>Республика Коми</region>
  </row>
  <row>
    <address>п. Ижма, ул.Советская, 150</address>
    <latitude>65.018541</latitude>
    <longtitude>53.920428</longtitude>
    <name>11339</name>
    <country>RU</country>
    <phone>(82140) 9-44-75</phone>
    <region>Республика Коми</region>
  </row>
  <row>
    <address>п. Щельяюр, ул. Дорожная, 25</address>
    <latitude>65.321854</latitude>
    <longtitude>53.382555</longtitude>
    <name>11340</name>
    <country>RU</country>
    <phone>(82140) 9-19-77</phone>
    <region>Республика Коми</region>
  </row>
  <row>
    <address>38 км трассы Сыктывкар – Киров, справа при движении от г.Кирова, около с.Пажга</address>
    <latitude>61.39032</latitude>
    <longtitude>50.56802</longtitude>
    <name>11341</name>
    <country>RU</country>
    <phone>(82130) 7-82-30</phone>
    <region>Республика Коми</region>
  </row>
  <row>
    <address>г. Сыктывкар, местечко Човью, ул.1-ая Промышленная, 32</address>
    <latitude>61.73015</latitude>
    <longtitude>50.76275</longtitude>
    <name>11342</name>
    <country>RU</country>
    <phone>(8212) 28-62-45</phone>
    <region>Республика Коми</region>
  </row>
  <row>
    <address>47 км трассы Сыктывкар - Усть-Кулом, справа при движении от г.Сыктывкара, около с.Корткерос</address>
    <latitude>61.803658</latitude>
    <longtitude>51.531194</longtitude>
    <name>11343</name>
    <country>RU</country>
    <phone>(82136) 9-23-05</phone>
    <region>Республика Коми</region>
  </row>
  <row>
    <address>г.Усинск, ул. Промышленная, 4</address>
    <latitude>66.01815</latitude>
    <longtitude>57.53938</longtitude>
    <name>11345</name>
    <country>RU</country>
    <phone>&#x27;(82144) 5-64-69,  (82144) 2-04-22&#x27;</phone>
    <region>Республика Коми</region>
  </row>
  <row>
    <address>230 км трассы Сыктывкар-Ухта, п. Чиньяворык, ул. Железнодорожная, 2 А, справа при движении от г. Ухты</address>
    <latitude>63.21532</latitude>
    <longtitude>52.68907</longtitude>
    <name>11346</name>
    <country>RU</country>
    <phone>(82139) 2-67-90</phone>
    <region>Республика Коми</region>
  </row>
  <row>
    <address>г. Ухта, ул. Южная, 1</address>
    <latitude>63.5552</latitude>
    <longtitude>53.71712</longtitude>
    <name>11347</name>
    <country>RU</country>
    <phone>(82147) 5-26-87</phone>
    <region>Республика Коми</region>
  </row>
  <row>
    <address>&#x27;г. Сыктывкар, Сысольское ш., 90  (на въезде в г.Сыктывкар со стороны г.Кирова, слева)&#x27;</address>
    <latitude>61.6419</latitude>
    <longtitude>50.81652</longtitude>
    <name>11350</name>
    <country>RU</country>
    <phone>(8212) 21-04-19</phone>
    <region>Республика Коми</region>
  </row>
  <row>
    <address>г. Усинск, ул. Промышленная улица, 21</address>
    <latitude>65.99493</latitude>
    <longtitude>57.54368</longtitude>
    <name>11353</name>
    <country>RU</country>
    <phone>(82144) 4-74-75</phone>
    <region>Республика Коми</region>
  </row>
  <row>
    <address>г.Сосногорск, ул. Коммунальная, 12</address>
    <latitude>63.59884</latitude>
    <longtitude>53.89407</longtitude>
    <name>11354</name>
    <country>RU</country>
    <phone>912-942-75-97</phone>
    <region>Республика Коми</region>
  </row>
  <row>
    <address>г. Сыктывкар, ул.Петрозаводская, 16, через дорогу от Торгового центра &quot;Орбита&quot;</address>
    <latitude>61.68857</latitude>
    <longtitude>50.82338</longtitude>
    <name>11355</name>
    <country>RU</country>
    <phone>(8212) 51-20-16</phone>
    <region>Республика Коми</region>
  </row>
  <row>
    <address>г. Печора, п.Изъяю, ул.Промышленная, 2, на левом берегу р. Печора, с левой стороны по дороге на нефтебазу</address>
    <latitude>65.11657</latitude>
    <longtitude>56.99932</longtitude>
    <name>11356</name>
    <country>RU</country>
    <phone>(82142) 9-98-72</phone>
    <region>Республика Коми</region>
  </row>
  <row>
    <address>г. Сыктывкар, ул.Пермская, 30, местечко Кочпон</address>
    <latitude>61.6436</latitude>
    <longtitude>50.87337</longtitude>
    <name>11358</name>
    <country>RU</country>
    <phone>(8212) 22-06-00</phone>
    <region>Республика Коми</region>
  </row>
  <row>
    <address>г. Сыктывкар, п.Краснозатонский, ул.Трудовая, 40</address>
    <latitude>61.66466</latitude>
    <longtitude>50.96883</longtitude>
    <name>11359</name>
    <country>RU</country>
    <phone>(8212) 23-63-74</phone>
    <region>Республика Коми</region>
  </row>
  <row>
    <address> п. Воргашор, ул. Фасадная, 6 (Новый арендатор, терминал снят)</address>
    <latitude>67.588</latitude>
    <longtitude>63.81007</longtitude>
    <name>11360</name>
    <country>RU</country>
    <phone>(82151) 7-68-52</phone>
    <region>Республика Коми</region>
  </row>
  <row>
    <address>27 км трассы Усинск-Харьягинск г.Усинск, местечко Головные сооружения, справа при движении из п. Харьягинск</address>
    <latitude>66.154863</latitude>
    <longtitude>57.332173</longtitude>
    <name>11361</name>
    <country>RU</country>
    <phone>(82144) 5-66-31</phone>
    <region>Республика Коми</region>
  </row>
  <row>
    <address>108 км трассы Усинск-Харьягинск, Усинский р-н, п. Верхнеколвинск , местечко 51 Буровая, справа при движении из п.Харьягинск</address>
    <latitude>66.671373</latitude>
    <longtitude>56.996642</longtitude>
    <name>11364</name>
    <country>RU</country>
    <phone>(82144) 5-78-06</phone>
    <region>Республика Коми</region>
  </row>
  <row>
    <address>г.Усинск, ул.Нефтяников, 8</address>
    <latitude>65.9933</latitude>
    <longtitude>57.5174</longtitude>
    <name>11365</name>
    <country>RU</country>
    <phone>(82144) 5-72-26</phone>
    <region>Республика Коми</region>
  </row>
  <row>
    <address>г. Ухта, мкр. Дальний, Сосногорское шоссе, 7</address>
    <latitude>63.546486</latitude>
    <longtitude>53.796814</longtitude>
    <name>11366</name>
    <country>RU</country>
    <phone>(82147) 5-71-01</phone>
    <region>Республика Коми</region>
  </row>
  <row>
    <address>г.Печора, ул.Железнодорожников</address>
    <latitude>65.139529</latitude>
    <longtitude>57.178116</longtitude>
    <name>11369</name>
    <country>RU</country>
    <phone>912-943-70-63</phone>
    <region>Республика Коми</region>
  </row>
  <row>
    <address>г. Сыктывкар, пр. Бумажников, д. 72, м. Емваль</address>
    <latitude>61.77422</latitude>
    <longtitude>50.75146</longtitude>
    <name>11379</name>
    <country>RU</country>
    <phone>(8212) 62-40-44</phone>
    <region>Республика Коми</region>
  </row>
  <row>
    <address>г. Сыктывкар, Сысольское ш., 55</address>
    <latitude>61.63582</latitude>
    <longtitude>50.81303</longtitude>
    <name>11389</name>
    <country>RU</country>
    <phone>(8212) 31-63-64</phone>
    <region>Республика Коми</region>
  </row>
  <row>
    <address>г. Сыктывкар, Ухтинское ш., 14</address>
    <latitude>61.804559</latitude>
    <longtitude>50.730896</longtitude>
    <name>11396</name>
    <country>RU</country>
    <phone>(8212) 65-85-79</phone>
    <region>Республика Коми</region>
  </row>
  <row>
    <address>г. Иваново, ул. Павла Большевикова, 3</address>
    <latitude>56.96345</latitude>
    <longtitude>41.03445</longtitude>
    <name>11 НП</name>
    <country>RU</country>
    <phone>(930) 345-98-71</phone>
    <region>Ивановская область</region>
  </row>
  <row>
    <address>д. Горка, Череповецкий р-он</address>
    <latitude>59.181283</latitude>
    <longtitude>37.942183</longtitude>
    <name>11 Э</name>
    <country>RU</country>
    <phone>(8202) 69-34-03</phone>
    <region>Вологодская область</region>
  </row>
  <row>
    <address>Брестская обл., Брестский р-н, М1, 25-й км, 1</address>
    <latitude>52.125526</latitude>
    <longtitude>23.891097</longtitude>
    <name>12</name>
    <country>BY</country>
    <phone>-</phone>
    <region>Брестская область</region>
  </row>
  <row>
    <address>г. Йошкар-Ола, ул.Кирова,  д.2А</address>
    <latitude>56.627652</latitude>
    <longtitude>47.927945</longtitude>
    <name>12003</name>
    <country>RU</country>
    <phone>(8362) 560000</phone>
    <region>Республика Марий Эл</region>
  </row>
  <row>
    <address>п.Мари-Турек, ул.Комсомольская, д.78, Сернурский тракт, трасса Йошкар-Ола - Сернур - Мари-Турек, 129 км от г.Йошкар-Олы</address>
    <latitude>56.78416</latitude>
    <longtitude>49.5986</longtitude>
    <name>12008</name>
    <country>RU</country>
    <phone>(83634) 93597</phone>
    <region>Республика Марий Эл</region>
  </row>
  <row>
    <address>Федеральная дорога Вятка 87км </address>
    <latitude>56.59515</latitude>
    <longtitude>47.8886</longtitude>
    <name>12009</name>
    <country>RU</country>
    <phone>(8362) 68-82-01</phone>
    <region>Республика Марий Эл</region>
  </row>
  <row>
    <address>г. Йошкар-Ола, ул. Фестивальная, д.70а</address>
    <latitude>56.642916</latitude>
    <longtitude>47.83176</longtitude>
    <name>12010</name>
    <country>RU</country>
    <phone>(8362) 465640</phone>
    <region>Республика Марий Эл</region>
  </row>
  <row>
    <address>п. Морки, Моркинский р-он, ул.Заозерная,д.67</address>
    <latitude>56.42875</latitude>
    <longtitude>48.9749</longtitude>
    <name>12013</name>
    <country>RU</country>
    <phone>(83635) 9-14-00</phone>
    <region>Республика Марий Эл</region>
  </row>
  <row>
    <address>Новоторъяльский р-он, автодорога Йошкар-Ола-Нурсола-Новый Торъял, 84км</address>
    <latitude>56.98589</latitude>
    <longtitude>48.743583</longtitude>
    <name>12014</name>
    <country>RU</country>
    <phone>(8236) 9-26-21</phone>
    <region>Республика Марий Эл</region>
  </row>
  <row>
    <address>п.Советский, 39 км автодороги Йошкар-Ола - Уржум</address>
    <latitude>56.74735</latitude>
    <longtitude>48.44143</longtitude>
    <name>12019</name>
    <country>RU</country>
    <phone>(83638) 95697</phone>
    <region>Республика Марий Эл</region>
  </row>
  <row>
    <address>г. Звенигово, ул. Охотина в 60 метрах по направлению на северо-восток от дома №4</address>
    <latitude>55.9894</latitude>
    <longtitude>48.00895</longtitude>
    <name>12022</name>
    <country>RU</country>
    <phone>(83645) 71516</phone>
    <region>Республика Марий Эл</region>
  </row>
  <row>
    <address>г. Йошкар-Ола, ул.К.Маркса, д.132</address>
    <latitude>56.62265</latitude>
    <longtitude>47.888216</longtitude>
    <name>12023</name>
    <country>RU</country>
    <phone>(8362) 45-29-50</phone>
    <region>Республика Марий Эл</region>
  </row>
  <row>
    <address>г. Волжск, ул.Кошкина, при въезде в город со стороны г.Казани рядом с постом ГИБДД</address>
    <latitude>55.845216</latitude>
    <longtitude>48.404516</longtitude>
    <name>12031</name>
    <country>RU</country>
    <phone>(83631) 4-58-74</phone>
    <region>Республика Марий Эл</region>
  </row>
  <row>
    <address>п. Красногорск, Звениговский р-он, федеральная  автодорога Йошкар-Ола-Зеленодольск, км 65+120 слева</address>
    <latitude>56.1453</latitude>
    <longtitude>48.31526</longtitude>
    <name>12032</name>
    <country>RU</country>
    <phone>(83645)6-53-08</phone>
    <region>Республика Марий Эл</region>
  </row>
  <row>
    <address>5 км до г. Кокшайск, внутри транспортной развязки кольцевого типа на км. 40+636 (слева) федеральной дороги &quot;Вятка&quot;</address>
    <latitude>56.188727</latitude>
    <longtitude>47.789961</longtitude>
    <name>12040</name>
    <country>RU</country>
    <phone>8 985 791 21 94</phone>
    <region>Республика Марий Эл</region>
  </row>
  <row>
    <address>с Помары, ул. Луксум, 7</address>
    <latitude>55.943921</latitude>
    <longtitude>48.372095</longtitude>
    <name>12844</name>
    <country>RU</country>
    <phone>8 961 378 38 79</phone>
    <region>Республика Марий Эл</region>
  </row>
  <row>
    <address>г. Волжск, ул. Йошкар-Олинское шоссе, 16</address>
    <latitude>55.881473</latitude>
    <longtitude>48.360096</longtitude>
    <name>12845</name>
    <country>RU</country>
    <phone>8 961 378 38 47</phone>
    <region>Республика Марий Эл</region>
  </row>
  <row>
    <address>г. Иваново, ул. Тимирязева, 60</address>
    <latitude>57.026409</latitude>
    <longtitude>40.965845</longtitude>
    <name>12 НП</name>
    <country>RU</country>
    <phone>89303555079</phone>
    <region>Ивановская область</region>
  </row>
  <row>
    <address>Брестская обл., г. Брест, ул. Карьерная, 11</address>
    <latitude>52.065199</latitude>
    <longtitude>23.757677</longtitude>
    <name>13</name>
    <country>BY</country>
    <phone>-</phone>
    <region>Брестская область</region>
  </row>
  <row>
    <address>г. Саранск, ул. Лодыгина, д.10А</address>
    <latitude>54.220963</latitude>
    <longtitude>45.183201</longtitude>
    <name>13201</name>
    <country>RU</country>
    <phone>8 8342 29 35 35</phone>
    <region>Республика Мордовия</region>
  </row>
  <row>
    <address>г. Саранск, ул. Волгоградская</address>
    <latitude>54.184352</latitude>
    <longtitude>45.205874</longtitude>
    <name>13202</name>
    <country>RU</country>
    <phone>8 83425 5 91 91</phone>
    <region>Республика Мордовия</region>
  </row>
  <row>
    <address>Старошайговский р-н, с.Старое-Шайгово, Р180, 51 км</address>
    <latitude>54.325028</latitude>
    <longtitude>44.481357</longtitude>
    <name>13203</name>
    <country>RU</country>
    <phone>8 83432 2 11 86</phone>
    <region>Республика Мордовия</region>
  </row>
  <row>
    <address>Ромодановский р-н, п. Ромоданово, Ичалковское шоссе, д.6</address>
    <latitude>54.426619</latitude>
    <longtitude>45.316125</longtitude>
    <name>13204</name>
    <country>RU</country>
    <phone>8 83438 2 11 52</phone>
    <region>Республика Мордовия</region>
  </row>
  <row>
    <address>г. Инсар, ул. Пугачева, д.1А</address>
    <latitude>53.872381</latitude>
    <longtitude>44.383672</longtitude>
    <name>13205</name>
    <country>RU</country>
    <phone>8 83449 2 11 38</phone>
    <region>Республика Мордовия</region>
  </row>
  <row>
    <address>Чамзинский р-н, р.п. Комсомольский, ул. Заводская, д.4</address>
    <latitude>54.446142</latitude>
    <longtitude>45.832956</longtitude>
    <name>13206</name>
    <country>RU</country>
    <phone>8 83437 3 13 77</phone>
    <region>Республика Мордовия</region>
  </row>
  <row>
    <address>с. Дубенки , Дубенский район, Р178, 84 км</address>
    <latitude>54.424419</latitude>
    <longtitude>46.309878</longtitude>
    <name>13208</name>
    <country>RU</country>
    <phone>8 83447 2 12 75</phone>
    <region>Республика Мордовия</region>
  </row>
  <row>
    <address>г. Саранск, ул. Осипенко, д.8б</address>
    <latitude>54.153422</latitude>
    <longtitude>45.16139</longtitude>
    <name>13210</name>
    <country>RU</country>
    <phone>8 83423 5 78 12</phone>
    <region>Республика Мордовия</region>
  </row>
  <row>
    <address>Торбеевский р-н, пгт. Торбеево</address>
    <latitude>54.085609</latitude>
    <longtitude>43.219035</longtitude>
    <name>13211</name>
    <country>RU</country>
    <phone>8 83456 2 01 35</phone>
    <region>Республика Мордовия</region>
  </row>
  <row>
    <address>Атяшевский р-н, р.п. Атяшево, пер. Совецкий, д. 14А</address>
    <latitude>54.594447</latitude>
    <longtitude>46.085895</longtitude>
    <name>13212</name>
    <country>RU</country>
    <phone>8 83434 2 30 64</phone>
    <region>Республика Мордовия</region>
  </row>
  <row>
    <address>п. Зубова-Поляна, Зубово-Полянский район</address>
    <latitude>54.078579</latitude>
    <longtitude>42.805137</longtitude>
    <name>13213</name>
    <country>RU</country>
    <phone>8 83458 2 28 70</phone>
    <region>Республика Мордовия</region>
  </row>
  <row>
    <address>Темниковский р-н, г. Темников, ул. Интернациональная</address>
    <latitude>54.64255</latitude>
    <longtitude>43.22558</longtitude>
    <name>13214</name>
    <country>RU</country>
    <phone>8 83445 2 49 82</phone>
    <region>Республика Мордовия</region>
  </row>
  <row>
    <address>Ковылкинский р-н, г. Ковылкино, ул. Королева</address>
    <latitude>54.028154</latitude>
    <longtitude>43.913181</longtitude>
    <name>13215</name>
    <country>RU</country>
    <phone>8 960 334 00 75</phone>
    <region>Республика Мордовия</region>
  </row>
  <row>
    <address>Болшеигнатовский р-н, с. Большое Игнатово, ул. Советская, д.55</address>
    <latitude>55.006912</latitude>
    <longtitude>45.55108</longtitude>
    <name>13216</name>
    <country>RU</country>
    <phone>8 83442 2 11 73</phone>
    <region>Республика Мордовия</region>
  </row>
  <row>
    <address>г. Саранск, ул. Косарева, д.130А</address>
    <latitude>54.21028</latitude>
    <longtitude>45.268491</longtitude>
    <name>13217</name>
    <country>RU</country>
    <phone>8 8342 55 97 44</phone>
    <region>Республика Мордовия</region>
  </row>
  <row>
    <address>г. Саранск,  ул. Севастопольская, 128, стр 1</address>
    <latitude>54.202975</latitude>
    <longtitude>45.226896</longtitude>
    <name>13218</name>
    <country>RU</country>
    <phone>8 8342 55 92 42</phone>
    <region>Республика Мордовия</region>
  </row>
  <row>
    <address>г. Саранск, ул. Рабочая, 47 А,  стр.1, Ленинский р-он.</address>
    <latitude>54.185278</latitude>
    <longtitude>45.196434</longtitude>
    <name>13219</name>
    <country>RU</country>
    <phone>8 8342 24 04 92</phone>
    <region>Республика Мордовия</region>
  </row>
  <row>
    <address>г. Саранск, Лямбирское ш., 2 км, трасса Н.Новгород-Саратов, слева по ходу движения</address>
    <latitude>54.235861</latitude>
    <longtitude>45.151437</longtitude>
    <name>13220</name>
    <country>RU</country>
    <phone>8 8342 76 51 05</phone>
    <region>Республика Мордовия</region>
  </row>
  <row>
    <address>г. Краснодар, ул. Захарова, 5</address>
    <latitude>45.0072</latitude>
    <longtitude>38.96802</longtitude>
    <name>23098</name>
    <country>RU</country>
    <phone>8 (861) 240-94-54</phone>
    <region>Краснодарский край</region>
  </row>
  <row>
    <address>г. Саранск, ул. Победы, 16, Пролетарский р-он. </address>
    <latitude>54.208554</latitude>
    <longtitude>45.111672</longtitude>
    <name>13221</name>
    <country>RU</country>
    <phone>8 8342 72 97 17</phone>
    <region>Республика Мордовия</region>
  </row>
  <row>
    <address>Саранск, ул. Строительная, 11 А, стр. 1, Пролетарский р-он</address>
    <latitude>54.205304</latitude>
    <longtitude>45.163975</longtitude>
    <name>13222</name>
    <country>RU</country>
    <phone>8 960 333 90 83</phone>
    <region>Республика Мордовия</region>
  </row>
  <row>
    <address>г. Саранск, 2 км Александровского ш., Пролетарский р-он.  </address>
    <latitude>54.23901</latitude>
    <longtitude>45.230345</longtitude>
    <name>13223</name>
    <country>RU</country>
    <phone>8 8342 29 40 67</phone>
    <region>Республика Мордовия</region>
  </row>
  <row>
    <address>п. Чамзинка, Республиканская, 1, справа при движении в сторону г.Ульяновска</address>
    <latitude>54.412537</latitude>
    <longtitude>45.789277</longtitude>
    <name>13224</name>
    <country>RU</country>
    <phone>8 960 334 00 21</phone>
    <region>Республика Мордовия</region>
  </row>
  <row>
    <address>Ичалковский район, п..Рождествено, ул.Полевая, 23</address>
    <latitude>54.678156</latitude>
    <longtitude>45.29002</longtitude>
    <name>13225</name>
    <country>RU</country>
    <phone>8 960 333 93 90</phone>
    <region>Республика Мордовия</region>
  </row>
  <row>
    <address>г. Саранск  р.п. Луховка, ул. Красная,  а/д Саранск-Кочкурово</address>
    <latitude>54.176477</latitude>
    <longtitude>45.214707</longtitude>
    <name>13226</name>
    <country>RU</country>
    <phone>8 960 333 84 58</phone>
    <region>Республика Мордовия</region>
  </row>
  <row>
    <address>г. Рузаевка, ул. Л.Толстого, д.9</address>
    <latitude>54.079493</latitude>
    <longtitude>44.934715</longtitude>
    <name>13227</name>
    <country>RU</country>
    <phone>8 960 334 00 52</phone>
    <region>Республика Мордовия</region>
  </row>
  <row>
    <address>г. Иваново, Писцово</address>
    <latitude>57.168965</latitude>
    <longtitude>40.522835</longtitude>
    <name>13 НП</name>
    <country>RU</country>
    <phone>89303453895</phone>
    <region>Ивановская область</region>
  </row>
  <row>
    <address>Брестская обл., г. Брест, ул. л-та Рябцева, 110</address>
    <latitude>52.138581</latitude>
    <longtitude>23.674708</longtitude>
    <name>14</name>
    <country>BY</country>
    <phone>-</phone>
    <region>Брестская область</region>
  </row>
  <row>
    <address>г. Иваново, ул. Тимирязева, д 1/3</address>
    <latitude>57.01463</latitude>
    <longtitude>40.95605</longtitude>
    <name>14 НП</name>
    <country>RU</country>
    <phone>89303615437</phone>
    <region>Ивановская область</region>
  </row>
  <row>
    <address>Брестская обл., г. Брест, ул. Суворова, 105/2</address>
    <latitude>52.070928</latitude>
    <longtitude>23.763351</longtitude>
    <name>15</name>
    <country>BY</country>
    <phone>-</phone>
    <region>Брестская область</region>
  </row>
  <row>
    <address>г. Моздок, ул. Транспортная, д. 9 </address>
    <latitude>43.74825</latitude>
    <longtitude>44.65015</longtitude>
    <name>15279</name>
    <country>RU</country>
    <phone>+7 (928) 493-83-82</phone>
    <region>Республика Северная Осетия-Алания</region>
  </row>
  <row>
    <address>г. Владикавказ, ул. Московская, д. 16 «б»</address>
    <latitude>43.05426</latitude>
    <longtitude>44.6398</longtitude>
    <name>15280</name>
    <country>RU</country>
    <phone>79888691455</phone>
    <region>Республика Северная Осетия-Алания</region>
  </row>
  <row>
    <address>г. Владикавказ, ул. Ватутина, д.101</address>
    <latitude>43.0435</latitude>
    <longtitude>44.69287</longtitude>
    <name>15281</name>
    <country>RU</country>
    <phone>79888691455</phone>
    <region>Республика Северная Осетия-Алания</region>
  </row>
  <row>
    <address>с. Майское,  трасса Беслан-Грзный участок дороги № 4</address>
    <latitude>43.186543</latitude>
    <longtitude>44.723731</longtitude>
    <name>15367</name>
    <country>RU</country>
    <phone>8(928) 7935336</phone>
    <region>Республика Северная Осетия-Алания</region>
  </row>
  <row>
    <address>Алагирский р-н, с. Нижний Бирагзанг, а/д Алагир-Владикавказ</address>
    <latitude>43.026824</latitude>
    <longtitude>44.238213</longtitude>
    <name>15372</name>
    <country>RU</country>
    <phone>8(928)-066-37-31</phone>
    <region>Республика Северная Осетия-Алания</region>
  </row>
  <row>
    <address>г. Иваново, ул. Кузнецова, кольцо маршрута 5-го троллейбуса.</address>
    <latitude>57.015729</latitude>
    <longtitude>40.929178</longtitude>
    <name>15 НП</name>
    <country>RU</country>
    <phone>8-930-361-54-31</phone>
    <region>Ивановская область</region>
  </row>
  <row>
    <address>Республика Беларусь, Брестская обл., Барановичский р-н, Р-4, 6-й км, 2</address>
    <latitude>53.124696</latitude>
    <longtitude>26.089067</longtitude>
    <name>16</name>
    <country>BY</country>
    <phone>-</phone>
    <region>Брестская область</region>
  </row>
  <row>
    <address>г. Казань, ул. Космонавтов, 46а</address>
    <latitude>55.79426711</latitude>
    <longtitude>49.19954539</longtitude>
    <name>16001 АЗС 1</name>
    <country>RU</country>
    <phone>(843) 272-52-33</phone>
    <region>Республика Татарстан</region>
  </row>
  <row>
    <address>с. Поспелово, трасса М7, 1032 км</address>
    <latitude>55.78057947</latitude>
    <longtitude>52.19025136</longtitude>
    <name>16009 АЗС 9-У</name>
    <country>RU</country>
    <phone>(85557) 2-35-69</phone>
    <region>Республика Татарстан</region>
  </row>
  <row>
    <address>г. Бавлы, М5, 1280 км</address>
    <latitude>54.476316</latitude>
    <longtitude>53.403832</longtitude>
    <name>16012 АЗС 12-У</name>
    <country>RU</country>
    <phone>(85519) 3-31-28</phone>
    <region>Республика Татарстан</region>
  </row>
  <row>
    <address>г. Казань, пересечение ул. Модельная и ул. Техническая</address>
    <latitude>55.748117</latitude>
    <longtitude>49.132661</longtitude>
    <name>16020 АЗС 20</name>
    <country>RU</country>
    <phone>-</phone>
    <region>Республика Татарстан</region>
  </row>
  <row>
    <address>г. Бугульма, Бавлинский выезд</address>
    <latitude>54.494326</latitude>
    <longtitude>52.897355</longtitude>
    <name>16036 АЗС 36</name>
    <country>RU</country>
    <phone>(85514) 7-12-52</phone>
    <region>Республика Татарстан</region>
  </row>
  <row>
    <address>г. Азнакаево, микрорайон Тукая</address>
    <latitude>54.85401</latitude>
    <longtitude>53.062633</longtitude>
    <name>16039 АЗС 39</name>
    <country>RU</country>
    <phone>(85592) 2-02-28</phone>
    <region>Республика Татарстан</region>
  </row>
  <row>
    <address>г. Бугульма, ул. Ленина, 127а</address>
    <latitude>54.52867156</latitude>
    <longtitude>52.82866806</longtitude>
    <name>16040 АЗС 40</name>
    <country>RU</country>
    <phone>(85514) 3-92-42</phone>
    <region>Республика Татарстан</region>
  </row>
  <row>
    <address>г. Нижнекамск, ул. Ахтубинская, 3д</address>
    <latitude>55.622328</latitude>
    <longtitude>51.824765</longtitude>
    <name>16049 АЗС 49</name>
    <country>RU</country>
    <phone>(8555) 41-53-52</phone>
    <region>Республика Татарстан</region>
  </row>
  <row>
    <address>г. Казань, М7, 770 км</address>
    <latitude>55.732686</latitude>
    <longtitude>48.773643</longtitude>
    <name>16056 АЗС 56</name>
    <country>RU</country>
    <phone>8-917-296-65-34</phone>
    <region>Республика Татарстан</region>
  </row>
  <row>
    <address>г. Набережные Челны, ул. Металлургическая (Промкомзона)</address>
    <latitude>55.67420292</latitude>
    <longtitude>52.46199973</longtitude>
    <name>16059 АЗС 59</name>
    <country>RU</country>
    <phone></phone>
    <region>Республика Татарстан</region>
  </row>
  <row>
    <address>п. Шапши, а/д Казань-Пермь, 34 км</address>
    <latitude>55.982212</latitude>
    <longtitude>49.479522</longtitude>
    <name>16066 АЗС 66-У</name>
    <country>RU</country>
    <phone>8-919-620-64-66</phone>
    <region>Республика Татарстан</region>
  </row>
  <row>
    <address>г. Бугульма, 138 км а/д Р239 Казань — Оренбург</address>
    <latitude>55.278602</latitude>
    <longtitude>50.76575</longtitude>
    <name>16078 АЗС 78-У</name>
    <country>RU</country>
    <phone>8-987-285-23-78</phone>
    <region>Республика Татарстан</region>
  </row>
  <row>
    <address>с.п. Старое Шигалеево, на въезде</address>
    <latitude>55.82198863</latitude>
    <longtitude>49.49680925</longtitude>
    <name>16085 АЗС а1685-У</name>
    <country>RU</country>
    <phone>89872147325</phone>
    <region>Республика Татарстан</region>
  </row>
  <row>
    <address>г. Казань, ул. Родины, 7а</address>
    <latitude>55.773124</latitude>
    <longtitude>49.197282</longtitude>
    <name>16088 АЗС 88-У</name>
    <country>RU</country>
    <phone>(843) 255-31-64</phone>
    <region>Республика Татарстан</region>
  </row>
  <row>
    <address>г. Набережные Челны, РТ, М7, 1058 км</address>
    <latitude>55.677431</latitude>
    <longtitude>52.443601</longtitude>
    <name>16090 АЗС 90-У</name>
    <country>RU</country>
    <phone>(8552) 44-33-80</phone>
    <region>Республика Татарстан</region>
  </row>
  <row>
    <address>г. Казань, ул. Тэцевская, 11а</address>
    <latitude>55.84925</latitude>
    <longtitude>49.062707</longtitude>
    <name>16093 АЗС 93</name>
    <country>RU</country>
    <phone>(843) 570-79-61</phone>
    <region>Республика Татарстан</region>
  </row>
  <row>
    <address>г. Альметьевск, ул. Базовая, 48</address>
    <latitude>54.877576433</latitude>
    <longtitude>52.285076184</longtitude>
    <name>16094 АЗС 94</name>
    <country>RU</country>
    <phone>8-937-592-13-94</phone>
    <region>Республика Татарстан</region>
  </row>
  <row>
    <address>Зеленодольский район, с.Айша, ул.Кооперативная,25а</address>
    <latitude>55.87200636</latitude>
    <longtitude>48.6294955</longtitude>
    <name>16096 АЗС 96</name>
    <country>RU</country>
    <phone>8-927-411-22-89</phone>
    <region>Республика Татарстан</region>
  </row>
  <row>
    <address>с. Алан-Полян, 914 км трассы М-7</address>
    <latitude>55.68608</latitude>
    <longtitude>50.52721</longtitude>
    <name>16097 АЗС 97</name>
    <country>RU</country>
    <phone>(843) 296-66-33</phone>
    <region>Республика Татарстан</region>
  </row>
  <row>
    <address>с. Шадкинское, 897 км М7 Волга</address>
    <latitude>55.693955</latitude>
    <longtitude>50.292264</longtitude>
    <name>16098 АЗС 98</name>
    <country>RU</country>
    <phone>(843) 296-66-33</phone>
    <region>Республика Татарстан</region>
  </row>
  <row>
    <address>п. Бавлы, ул. Сайдашева</address>
    <latitude>54.395073</latitude>
    <longtitude>53.245816</longtitude>
    <name>16101 АЗС 101</name>
    <country>RU</country>
    <phone>(85569) 5-28-85</phone>
    <region>Республика Татарстан</region>
  </row>
  <row>
    <address>г. Лениногорск, ул. Чайковского,17а</address>
    <latitude>54.59461254</latitude>
    <longtitude>52.45572551</longtitude>
    <name>16102 АЗС 102</name>
    <country>RU</country>
    <phone>(85595) 5-46-67</phone>
    <region>Республика Татарстан</region>
  </row>
  <row>
    <address>с. Поспелово, М7, 1032 км</address>
    <latitude>55.77927622</latitude>
    <longtitude>52.19973564</longtitude>
    <name>16104 АЗС 104</name>
    <country>RU</country>
    <phone>(85557) 4-91-22</phone>
    <region>Республика Татарстан</region>
  </row>
  <row>
    <address>д. Десятидворики, М7, 772 км</address>
    <latitude>55.75165652</latitude>
    <longtitude>48.80370496</longtitude>
    <name>16105 АЗС 105</name>
    <country>RU</country>
    <phone>8-987-214-70-91</phone>
    <region>Республика Татарстан</region>
  </row>
  <row>
    <address>г. Казань, пр. Победы</address>
    <latitude>55.80194</latitude>
    <longtitude>49.21112</longtitude>
    <name>16109 АЗС 109</name>
    <country>RU</country>
    <phone>89872954819</phone>
    <region>Республика Татарстан</region>
  </row>
  <row>
    <address>г. Казань, ул. Мавлютова, 50а</address>
    <latitude>55.744477881</latitude>
    <longtitude>49.190317085</longtitude>
    <name>16110 АЗС 110</name>
    <country>RU</country>
    <phone>8-987-293-24-62</phone>
    <region>Республика Татарстан</region>
  </row>
  <row>
    <address>г. Набережные Челны, Альметьевский тракт (а/д Набережные Челны-Альметьевск)</address>
    <latitude>55.661500399</latitude>
    <longtitude>52.261349187</longtitude>
    <name>16111 АЗС 111</name>
    <country>RU</country>
    <phone></phone>
    <region>Республика Татарстан</region>
  </row>
  <row>
    <address>г. Казань, ул. Аделя Кутуя, 98</address>
    <latitude>55.782564972</latitude>
    <longtitude>49.1883421416</longtitude>
    <name>16112 АЗС 112</name>
    <country>RU</country>
    <phone>89172254164</phone>
    <region>Республика Татарстан</region>
  </row>
  <row>
    <address>г. Казань, ул. Тульская, 56/3</address>
    <latitude>55.733466358</latitude>
    <longtitude>49.143132792</longtitude>
    <name>16113 АЗС 113</name>
    <country>RU</country>
    <phone>08(843)5-113</phone>
    <region>Республика Татарстан</region>
  </row>
  <row>
    <address>г. Нижнекамск, ул. 2 Промышленная, 46</address>
    <latitude>55.614992855</latitude>
    <longtitude>51.979412482</longtitude>
    <name>16114 АЗС 114</name>
    <country>RU</country>
    <phone>-</phone>
    <region>Республика Татарстан</region>
  </row>
  <row>
    <address>г. Казань, ул. Амирхана, 1д</address>
    <latitude>55.815599</latitude>
    <longtitude>49.134689</longtitude>
    <name>16115 АЗС 115</name>
    <country>RU</country>
    <phone>89196800861</phone>
    <region>Республика Татарстан</region>
  </row>
  <row>
    <address>г. Казань, ул. Гаврилова</address>
    <latitude>55.834669</latitude>
    <longtitude>49.160311</longtitude>
    <name>16116 АЗС 116</name>
    <country>RU</country>
    <phone>89872161524</phone>
    <region>Республика Татарстан</region>
  </row>
  <row>
    <address>г. Казань, 818 км трассы M7 (на въезде в Казань)</address>
    <latitude>55.86856411</latitude>
    <longtitude>49.300180586</longtitude>
    <name>16118 АЗС 118</name>
    <country>RU</country>
    <phone>-</phone>
    <region>Республика Татарстан</region>
  </row>
  <row>
    <address>п. Октябрьский, 72км автодороги Казань-Ульяновск, придорожная полоса автодороги Р-241 Казань-Ульяновск, 13км+600м (справа)</address>
    <latitude>55.660899055</latitude>
    <longtitude>48.857178787</longtitude>
    <name>16119 АЗС 119</name>
    <country>RU</country>
    <phone>89172256642</phone>
    <region>Республика Татарстан</region>
  </row>
  <row>
    <address>г. Казань, 829-й км, трассы М7</address>
    <latitude>55.806603322</latitude>
    <longtitude>49.344502444</longtitude>
    <name>16120 АЗС 120</name>
    <country>RU</country>
    <phone>89172254663</phone>
    <region>Республика Татарстан</region>
  </row>
  <row>
    <address>г. Альметьевск, ул. Индустриальная, 37</address>
    <latitude>54.888966</latitude>
    <longtitude>52.31163</longtitude>
    <name>16122 АЗС 122</name>
    <country>RU</country>
    <phone>-</phone>
    <region>Республика Татарстан</region>
  </row>
  <row>
    <address>в районе с. Ново-Талицы, д. Песочнево, 1</address>
    <latitude>57.01011</latitude>
    <longtitude>40.838266</longtitude>
    <name>16 НП</name>
    <country>RU</country>
    <phone>8-920-363-75-04</phone>
    <region>Ивановская область</region>
  </row>
  <row>
    <address>Брестская обл., г. Барановичи, ул. Слонимское шоссе, 27А</address>
    <latitude>53.107246</latitude>
    <longtitude>25.950867</longtitude>
    <name>17</name>
    <country>BY</country>
    <phone>-</phone>
    <region>Брестская область</region>
  </row>
  <row>
    <address>г. Иваново, ул. Жиделева, 2</address>
    <latitude>57.007411</latitude>
    <longtitude>40.970525</longtitude>
    <name>17 НП</name>
    <country>RU</country>
    <phone>8-920-674-00-51</phone>
    <region>Ивановская область</region>
  </row>
  <row>
    <address>п. Сазоново.</address>
    <latitude>59.110101</latitude>
    <longtitude>35.228112</longtitude>
    <name>17 Э</name>
    <country>RU</country>
    <phone>(81741) 3-13-19</phone>
    <region>Вологодская область</region>
  </row>
  <row>
    <address>г.Барановичи, ул. Ленина (у путепровода)</address>
    <latitude>53.13221</latitude>
    <longtitude>26.037932</longtitude>
    <name>18</name>
    <country>BY</country>
    <phone>-</phone>
    <region>Брестская область</region>
  </row>
  <row>
    <address>Ижевск, ул. Маяковского, (рядом с Ижевской нефтебазой)   </address>
    <latitude>56.816933</latitude>
    <longtitude>53.2006</longtitude>
    <name>18001</name>
    <country>RU</country>
    <phone>(3412) 78-28-04</phone>
    <region>Удмуртская Республика</region>
  </row>
  <row>
    <address>г. Ижевск, ул. Камбарская, 51</address>
    <latitude>56.839817</latitude>
    <longtitude>53.301267</longtitude>
    <name>18002</name>
    <country>RU</country>
    <phone>(3412) 75-1045</phone>
    <region>Удмуртская Республика</region>
  </row>
  <row>
    <address>г. Ижевск, Воткинское Шоссе,296 (у ТЭЦ 2)</address>
    <latitude>56.903417</latitude>
    <longtitude>53.335774</longtitude>
    <name>18003</name>
    <country>RU</country>
    <phone>(3412) 21-19-33</phone>
    <region>Удмуртская Республика</region>
  </row>
  <row>
    <address>г. Ижевск, ул. Буммашевская 1(напротив центрального ГИБДД).</address>
    <latitude>56.883</latitude>
    <longtitude>53.2269</longtitude>
    <name>18004</name>
    <country>RU</country>
    <phone>(3412) 45-21-34</phone>
    <region>Удмуртская Республика</region>
  </row>
  <row>
    <address>г. Ижевск, 7 км Якшур – Боденского тракта</address>
    <latitude>56.893117</latitude>
    <longtitude>53.154667</longtitude>
    <name>18005</name>
    <country>RU</country>
    <phone>(3412) 59-17-75</phone>
    <region>Удмуртская Республика</region>
  </row>
  <row>
    <address>г. Ижевск, ул. Азина 342 (можгинская трасса)</address>
    <latitude>56.792317</latitude>
    <longtitude>53.1578</longtitude>
    <name>18006</name>
    <country>RU</country>
    <phone>(3412) 71-34-24</phone>
    <region>Удмуртская Республика</region>
  </row>
  <row>
    <address>с. Якшур-Бодья, по трассе Ижевск-Югра</address>
    <latitude>57.19985</latitude>
    <longtitude>53.156683</longtitude>
    <name>18007</name>
    <country>RU</country>
    <phone>(34162) 2-15-26</phone>
    <region>Удмуртская Республика</region>
  </row>
  <row>
    <address>г. Сарапул, ул.М.Горького, 83</address>
    <latitude>56.47623</latitude>
    <longtitude>53.779996</longtitude>
    <name>18008</name>
    <country>RU</country>
    <phone>(34147) 3-39-95</phone>
    <region>Удмуртская Республика</region>
  </row>
  <row>
    <address>г. Сарапул, ул.Азина, 166 </address>
    <latitude>56.443472</latitude>
    <longtitude>53.798069</longtitude>
    <name>18009</name>
    <country>RU</country>
    <phone>(34147) 2-48-23</phone>
    <region>Удмуртская Республика</region>
  </row>
  <row>
    <address>с. Камское, ул. Восточная, 19, Камбарский р-он.</address>
    <latitude>56.283909</latitude>
    <longtitude>54.148689</longtitude>
    <name>18010</name>
    <country>RU</country>
    <phone>(34153) 2-94-53</phone>
    <region>Удмуртская Республика</region>
  </row>
  <row>
    <address>г. Глазов, ул. Драгунова, 3 </address>
    <latitude>58.130305</latitude>
    <longtitude>52.663696</longtitude>
    <name>18011</name>
    <country>RU</country>
    <phone>(34141) 3-71-75</phone>
    <region>Удмуртская Республика</region>
  </row>
  <row>
    <address>п. Балезино, ул. Калинина, 52 </address>
    <latitude>57.96425</latitude>
    <longtitude>52.986483</longtitude>
    <name>18012</name>
    <country>RU</country>
    <phone>(34166) 2-15-89, 8-912-766-03-17</phone>
    <region>Удмуртская Республика</region>
  </row>
  <row>
    <address>п. Яр, ул. Советская, 2</address>
    <latitude>58.233987</latitude>
    <longtitude>52.12254</longtitude>
    <name>18014</name>
    <country>RU</country>
    <phone>(34157) 4-12-57</phone>
    <region>Удмуртская Республика</region>
  </row>
  <row>
    <address>г. Можга,  ул.Вавожский Тракт </address>
    <latitude>56.468622</latitude>
    <longtitude>52.210848</longtitude>
    <name>18016</name>
    <country>RU</country>
    <phone>(34139) 3-07-74</phone>
    <region>Удмуртская Республика</region>
  </row>
  <row>
    <address>с. Грахово, ул.Азина, 31</address>
    <latitude>56.045345</latitude>
    <longtitude>51.944247</longtitude>
    <name>18019</name>
    <country>RU</country>
    <phone> (34163) 2-12-45</phone>
    <region>Удмуртская Республика</region>
  </row>
  <row>
    <address>п. Кизнер, ул.Первомайская, 45</address>
    <latitude>56.277103</latitude>
    <longtitude>51.51552</longtitude>
    <name>18020</name>
    <country>RU</country>
    <phone> (34154) 3-41-29  </phone>
    <region>Удмуртская Республика</region>
  </row>
  <row>
    <address>п. Дебесы, ул.Андронова, 84</address>
    <latitude>57.662375</latitude>
    <longtitude>53.795443</longtitude>
    <name>18021</name>
    <country>RU</country>
    <phone>(34130) 2-12-70</phone>
    <region>Удмуртская Республика</region>
  </row>
  <row>
    <address>п. Кез, ул. Комсомольская, 38 </address>
    <latitude>57.8854</latitude>
    <longtitude>53.727183</longtitude>
    <name>18022</name>
    <country>RU</country>
    <phone>(912)-852-62-80</phone>
    <region>Удмуртская Республика</region>
  </row>
  <row>
    <address>п. Ува,  ул.Толстого, </address>
    <latitude>56.985291</latitude>
    <longtitude>52.164583</longtitude>
    <name>18024</name>
    <country>RU</country>
    <phone> (34130) 5-11-29</phone>
    <region>Удмуртская Республика</region>
  </row>
  <row>
    <address>п. Нылга, ул. Тракторная, 18</address>
    <latitude>56.768787</latitude>
    <longtitude>52.382713</longtitude>
    <name>18025</name>
    <country>RU</country>
    <phone>(34130) 3-11-15</phone>
    <region>Удмуртская Республика</region>
  </row>
  <row>
    <address>с. Сюмси, ул.Сибирская, 1а </address>
    <latitude>57.120257</latitude>
    <longtitude>51.622271</longtitude>
    <name>18026</name>
    <country>RU</country>
    <phone> (34152) 2-11-41</phone>
    <region>Удмуртская Республика</region>
  </row>
  <row>
    <address>г. Воткинск, ул.1 Мая, 176 а </address>
    <latitude>57.077549</latitude>
    <longtitude>53.989755</longtitude>
    <name>18028</name>
    <country>RU</country>
    <phone>(34145) 5-91-45</phone>
    <region>Удмуртская Республика</region>
  </row>
  <row>
    <address>с.Шаркан, ул.Ленина, 94 </address>
    <latitude>57.281205</latitude>
    <longtitude>53.87352</longtitude>
    <name>18033</name>
    <country>RU</country>
    <phone>(34136) 2-17-11</phone>
    <region>Удмуртская Республика</region>
  </row>
  <row>
    <address>с. Красногорское, ул.Ленина, 116 </address>
    <latitude>57.716143</latitude>
    <longtitude>52.508833</longtitude>
    <name>18034</name>
    <country>RU</country>
    <phone>(34164) 2-11-34</phone>
    <region>Удмуртская Республика</region>
  </row>
  <row>
    <address>г. Воткинск, ул. Гагарина, 29 (при выезде из города в сторону Чайковского – с левой стороны)</address>
    <latitude>57.028732</latitude>
    <longtitude>53.954758</longtitude>
    <name>18036</name>
    <country>RU</country>
    <phone>(34145) 5-27-89</phone>
    <region>Удмуртская Республика</region>
  </row>
  <row>
    <address>с. Малая Пурга, ул. Советская, 97</address>
    <latitude>56.561892</latitude>
    <longtitude>53.013159</longtitude>
    <name>18038</name>
    <country>RU</country>
    <phone>(34138) 4-17-81</phone>
    <region>Удмуртская Республика</region>
  </row>
  <row>
    <address>г. Ижевск, ул. Шабердинский тракт.   </address>
    <latitude>56.865853</latitude>
    <longtitude>53.09403</longtitude>
    <name>18039</name>
    <country>RU</country>
    <phone>(3412) 54-51-63</phone>
    <region>Удмуртская Республика</region>
  </row>
  <row>
    <address>с. Завьялово, ул. Гальянская 16, справа при движении в г. Ижевск 3 км  </address>
    <latitude>56.813567</latitude>
    <longtitude>53.369667</longtitude>
    <name>18041</name>
    <country>RU</country>
    <phone>(3412) 32-15-86</phone>
    <region>Удмуртская Республика</region>
  </row>
  <row>
    <address>с. Юкаменское,  ул. Юкаменский тракт.</address>
    <latitude>57.898784</latitude>
    <longtitude>52.270164</longtitude>
    <name>18047</name>
    <country>RU</country>
    <phone>(34161) 2-12-15</phone>
    <region>Удмуртская Республика</region>
  </row>
  <row>
    <address>Завьяловский р-н, д. Каменное, Сарапульский тракт №1</address>
    <latitude>56.724017</latitude>
    <longtitude>53.299633</longtitude>
    <name>18048</name>
    <country>RU</country>
    <phone>(3412) 62-51-97</phone>
    <region>Удмуртская Республика</region>
  </row>
  <row>
    <address>г. Можга, ул.Ивана Быстрых, 61</address>
    <latitude>56.44877</latitude>
    <longtitude>52.266709</longtitude>
    <name>18051</name>
    <country>RU</country>
    <phone>  (34139) 3-49-93     </phone>
    <region>Удмуртская Республика</region>
  </row>
  <row>
    <address>г. Можга, проезд. Сюгаильский, 23 </address>
    <latitude>56.426512</latitude>
    <longtitude>52.179091</longtitude>
    <name>18052</name>
    <country>RU</country>
    <phone>  (34139) 3-15-79</phone>
    <region>Удмуртская Республика</region>
  </row>
  <row>
    <address>п. Игра, ул. Ключевая, 6. </address>
    <latitude>57.533975</latitude>
    <longtitude>53.089079</longtitude>
    <name>18055</name>
    <country>RU</country>
    <phone>(34134) 3-21-76</phone>
    <region>Удмуртская Республика</region>
  </row>
  <row>
    <address>п. Ува, ул. М. Горького, 60</address>
    <latitude>56.970167</latitude>
    <longtitude>52.198333</longtitude>
    <name>18056</name>
    <country>RU</country>
    <phone>(34130) 5-13-95</phone>
    <region>Удмуртская Республика</region>
  </row>
  <row>
    <address>г. Сарапул, территория Сигаевской сельской администрации </address>
    <latitude>56.40273</latitude>
    <longtitude>53.758436</longtitude>
    <name>18057</name>
    <country>RU</country>
    <phone>(34147) 2-50-69</phone>
    <region>Удмуртская Республика</region>
  </row>
  <row>
    <address>г. Сарапул, ул. Путейская, 74 (справа, при въезде в город)</address>
    <latitude>56.4666</latitude>
    <longtitude>53.7184</longtitude>
    <name>18058</name>
    <country>RU</country>
    <phone>89326800158</phone>
    <region>Удмуртская Республика</region>
  </row>
  <row>
    <address>с. Можга, 2 км от села</address>
    <latitude>56.383922</latitude>
    <longtitude>52.229353</longtitude>
    <name>18061</name>
    <country>RU</country>
    <phone>(34139) 3-14-61</phone>
    <region>Удмуртская Республика</region>
  </row>
  <row>
    <address>г. Ижевск, ул. Маяковского, 51 </address>
    <latitude>56.810422</latitude>
    <longtitude>53.208271</longtitude>
    <name>18062</name>
    <country>RU</country>
    <phone>(3412) 50-61-22</phone>
    <region>Удмуртская Республика</region>
  </row>
  <row>
    <address>г. Глазов, ул. Красногорский тракт, 17. </address>
    <latitude>58.115226</latitude>
    <longtitude>52.705369</longtitude>
    <name>18064</name>
    <country>RU</country>
    <phone>(34141) 4-37-74</phone>
    <region>Удмуртская Республика</region>
  </row>
  <row>
    <address>п. Новый, ул. Построечная, 1</address>
    <latitude>56.803101</latitude>
    <longtitude>54.017439</longtitude>
    <name>18065</name>
    <country>RU</country>
    <phone>(34145) 7-25-77</phone>
    <region>Удмуртская Республика</region>
  </row>
  <row>
    <address>326 км трассы Казань-Мамадыш-Пермь-Екатеринбург</address>
    <latitude>57.080242</latitude>
    <longtitude>51.562584</longtitude>
    <name>18067</name>
    <country>RU</country>
    <phone>(34152) 2-10-62</phone>
    <region>Удмуртская Республика</region>
  </row>
  <row>
    <address>г. Глазов, д. Штанигурт, ул. Югокаменская, 2 &quot;а&quot;</address>
    <latitude>58.118268</latitude>
    <longtitude>52.650355</longtitude>
    <name>18068</name>
    <country>RU</country>
    <phone>(34141) 5-62-06</phone>
    <region>Удмуртская Республика</region>
  </row>
  <row>
    <address>г. Ижевск, ул. Ленина, 186</address>
    <latitude>56.84034</latitude>
    <longtitude>53.306595</longtitude>
    <name>18070</name>
    <country>RU</country>
    <phone>89199104272</phone>
    <region>Удмуртская Республика</region>
  </row>
  <row>
    <address>г. Ижевск, ул. Клубная, 34</address>
    <latitude>56.8312</latitude>
    <longtitude>53.148917</longtitude>
    <name>18074</name>
    <country>RU</country>
    <phone>(3412) 61-61-04</phone>
    <region>Удмуртская Республика</region>
  </row>
  <row>
    <address>г. Глазов, ул. Советская, 45</address>
    <latitude>58.147017</latitude>
    <longtitude>52.64395</longtitude>
    <name>18075</name>
    <country>RU</country>
    <phone>8-912-766-03-11</phone>
    <region>Удмуртская Республика</region>
  </row>
  <row>
    <address>п.Вавож, ул.Победы, 104 б </address>
    <latitude>56.778158</latitude>
    <longtitude>51.911785</longtitude>
    <name>18077</name>
    <country>RU</country>
    <phone>  (34155) 2-11-30                                                                                                    </phone>
    <region>Удмуртская Республика</region>
  </row>
  <row>
    <address>д. М.Чепса , трасса Пермь - Казань, участок Очер-Игра,  справа при движении в г.Пермь, 44 км от г.Игры</address>
    <latitude>57.63175</latitude>
    <longtitude>53.770833</longtitude>
    <name>18078</name>
    <country>RU</country>
    <phone> (3412) 2-12-69</phone>
    <region>Удмуртская Республика</region>
  </row>
  <row>
    <address>г. Сарапул,  ул. Трактовая, 26</address>
    <latitude>56.498461</latitude>
    <longtitude>53.792844</longtitude>
    <name>18080</name>
    <country>RU</country>
    <phone>8-932-6800180</phone>
    <region>Удмуртская Республика</region>
  </row>
  <row>
    <address>г. Сарапул, ул.Молодежная, 16 </address>
    <latitude>56.44757</latitude>
    <longtitude>53.748218</longtitude>
    <name>18082</name>
    <country>RU</country>
    <phone>8-912-768-45-20</phone>
    <region>Удмуртская Республика</region>
  </row>
  <row>
    <address>175 км, трассы Ижевск-Елабуга (ограничение по высоте навеса - 4м)</address>
    <latitude>56.027615</latitude>
    <longtitude>52.370918</longtitude>
    <name>18084</name>
    <country>RU</country>
    <phone>8-950-159-98-79</phone>
    <region>Удмуртская Республика</region>
  </row>
  <row>
    <address>п. Игра, ул. Мокрушенского, 90</address>
    <latitude>57.553194</latitude>
    <longtitude>53.109132</longtitude>
    <name>18085</name>
    <country>RU</country>
    <phone> (34134) 3-21-26 </phone>
    <region>Удмуртская Республика</region>
  </row>
  <row>
    <address>с. Селты, ул.Горького, 46 </address>
    <latitude>57.300572</latitude>
    <longtitude>52.141757</longtitude>
    <name>18087</name>
    <country>RU</country>
    <phone>(34159) 2-11-32                                 </phone>
    <region>Удмуртская Республика</region>
  </row>
  <row>
    <address>с. Балезино по трассе Ижевск - Глазов</address>
    <latitude>57.95968</latitude>
    <longtitude>52.972538</longtitude>
    <name>18088</name>
    <country>RU</country>
    <phone>8-912-768-03-14</phone>
    <region>Удмуртская Республика</region>
  </row>
  <row>
    <address>д. Миндерево, Малопургинский р-н,  по трассе Елабуга-Ижевск  (ограничение по высоте навеса - 4м)</address>
    <latitude>56.573667</latitude>
    <longtitude>53.015783</longtitude>
    <name>18089</name>
    <country>RU</country>
    <phone>(34138) 4-11-92</phone>
    <region>Удмуртская Республика</region>
  </row>
  <row>
    <address>г.Воткинск, ул.Пролетарская, 12-а.</address>
    <latitude>57.040867</latitude>
    <longtitude>54.006717</longtitude>
    <name>18090</name>
    <country>RU</country>
    <phone> (34145) 3-27-65, </phone>
    <region>Удмуртская Республика</region>
  </row>
  <row>
    <address>с. Алнаши, справа при движении со стороны г.Менделеевска, 33 км в сторону г.Можги</address>
    <latitude>56.182033</latitude>
    <longtitude>52.460583</longtitude>
    <name>18093</name>
    <country>RU</country>
    <phone>(34150) 2-11-86</phone>
    <region>Удмуртская Республика</region>
  </row>
  <row>
    <address>г. Ижевск, ул. Либкнехта 4</address>
    <latitude>56.836867</latitude>
    <longtitude>53.204567</longtitude>
    <name>18098</name>
    <country>RU</country>
    <phone>(3412) 78-46-91</phone>
    <region>Удмуртская Республика</region>
  </row>
  <row>
    <address>г. Ижевск, Славянское шоссе, с. Орловское </address>
    <latitude>56.948117</latitude>
    <longtitude>53.2218</longtitude>
    <name>18099</name>
    <country>RU</country>
    <phone>8  932  680 01 99 </phone>
    <region>Удмуртская Республика</region>
  </row>
  <row>
    <address>г. Ижевск,  ул.Воткинское шоссе, 17</address>
    <latitude>56.889063</latitude>
    <longtitude>53.237167</longtitude>
    <name>18100</name>
    <country>RU</country>
    <phone> (3412) 44-11-88      </phone>
    <region>Удмуртская Республика</region>
  </row>
  <row>
    <address>г. Ижевск, ул. Либкнехта</address>
    <latitude>56.837617</latitude>
    <longtitude>53.201883</longtitude>
    <name>18101</name>
    <country>RU</country>
    <phone>(3412) 51-74-56</phone>
    <region>Удмуртская Республика</region>
  </row>
  <row>
    <address>г. Ижевск, ул. Удмуртская, 270</address>
    <latitude>56.863417</latitude>
    <longtitude>53.223283</longtitude>
    <name>18102</name>
    <country>RU</country>
    <phone>(3412) 51-75-23</phone>
    <region>Удмуртская Республика</region>
  </row>
  <row>
    <address>г. Ижевск, ул. Мельничная, 2 </address>
    <latitude>56.833755</latitude>
    <longtitude>53.258778</longtitude>
    <name>18103</name>
    <country>RU</country>
    <phone>8-912-852-51-59   </phone>
    <region>Удмуртская Республика</region>
  </row>
  <row>
    <address>г. Ижевск, ул. Чугуевского, 11</address>
    <latitude>56.834267</latitude>
    <longtitude>53.228833</longtitude>
    <name>18105</name>
    <country>RU</country>
    <phone>8-912-766-1-491</phone>
    <region>Удмуртская Республика</region>
  </row>
  <row>
    <address>п. Веретье</address>
    <latitude>59.156317</latitude>
    <longtitude>37.802583</longtitude>
    <name>18 Э</name>
    <country>RU</country>
    <phone>(921) 137-04-35</phone>
    <region>Вологодская область</region>
  </row>
  <row>
    <address>Брестская обл., г. Пинск, ул. Интернациональная, 55</address>
    <latitude>52.126249</latitude>
    <longtitude>26.111323</longtitude>
    <name>19</name>
    <country>BY</country>
    <phone>-</phone>
    <region>Брестская область</region>
  </row>
  <row>
    <address>г. Вологда, Окружное ш.</address>
    <latitude>59.216233</latitude>
    <longtitude>39.809933</longtitude>
    <name>19 Э</name>
    <country>RU</country>
    <phone>(8172) 51-57-71</phone>
    <region>Вологодская область</region>
  </row>
  <row>
    <address>п. Фанерник, Костромской р-н, слева на выезде из г.Кострома по ул.Галичская, а/д Р-98, 3.5км от ж/д переезда</address>
    <latitude>57.7859</latitude>
    <longtitude>41.04226</longtitude>
    <name>1Д</name>
    <country>RU</country>
    <phone>(4942)65-17-85</phone>
    <region>Костромская область</region>
  </row>
  <row>
    <address>г. Иваново, ул Куконковых 44</address>
    <latitude>56.979467</latitude>
    <longtitude>41.001517</longtitude>
    <name>1 НП</name>
    <country>RU</country>
    <phone>8 (4932) 23-39-18</phone>
    <region>Ивановская область</region>
  </row>
  <row>
    <address>г. Минск, ул. Радиальная, д.7</address>
    <latitude>53.875985</latitude>
    <longtitude>27.65194</longtitude>
    <name>2</name>
    <country>BY</country>
    <phone>-</phone>
    <region>Минская область</region>
  </row>
  <row>
    <address>Брестская обл., г. Барановичи, ул. Промышленная, 25</address>
    <latitude>53.164249</latitude>
    <longtitude>26.024816</longtitude>
    <name>20</name>
    <country>BY</country>
    <phone>-</phone>
    <region>Брестская область</region>
  </row>
  <row>
    <address>Брестская обл., г. Брест, ул. Коммерческая, 34</address>
    <latitude>52.13254</latitude>
    <longtitude>23.768638</longtitude>
    <name>21</name>
    <country>BY</country>
    <phone>-</phone>
    <region>Брестская область</region>
  </row>
  <row>
    <address>г. Чебоксары, Марпосадское шоссе 2</address>
    <latitude>56.130045</latitude>
    <longtitude>47.289416</longtitude>
    <name>21115</name>
    <country>RU</country>
    <phone>(8352) 630042</phone>
    <region>Республика Чувашия</region>
  </row>
  <row>
    <address>г. Новочебоксарск, ул. Винокурова, д.44, напротив Автовокзала</address>
    <latitude>56.109626</latitude>
    <longtitude>47.473053</longtitude>
    <name>21116</name>
    <country>RU</country>
    <phone>(8352) 716898</phone>
    <region>Республика Чувашия</region>
  </row>
  <row>
    <address>г. Чебоксары, ул. Шевченко, 8 А</address>
    <latitude>56.130885</latitude>
    <longtitude>47.241715</longtitude>
    <name>21119</name>
    <country>RU</country>
    <phone>(8352) 62-31-37</phone>
    <region>Республика Чувашия</region>
  </row>
  <row>
    <address>г. Чебоксары, ул. Горького, д.18, напротив магазина &quot;Эльдорадо&quot;</address>
    <latitude>56.14908</latitude>
    <longtitude>47.18909</longtitude>
    <name>21120</name>
    <country>RU</country>
    <phone>(8352) 45-60-74</phone>
    <region>Республика Чувашия</region>
  </row>
  <row>
    <address>г. Чебоксары, ул. Гладкова,13 А, рядом с  рынком  &quot;Ярмарка&quot; </address>
    <latitude>56.11132</latitude>
    <longtitude>47.24699</longtitude>
    <name>21121</name>
    <country>RU</country>
    <phone>(8352) 570408</phone>
    <region>Республика Чувашия</region>
  </row>
  <row>
    <address>г. Чебоксары. пр-т Ивана Яковлева, д.33, рядом  с  Заводом &quot;Керамблок&quot;</address>
    <latitude>56.082253</latitude>
    <longtitude>47.266789</longtitude>
    <name>21122</name>
    <country>RU</country>
    <phone>(8352) 529505, 8 905 347 92 55</phone>
    <region>Республика Чувашия</region>
  </row>
  <row>
    <address>г. Новочебоксарск, ул. 10 Пятилетки, д.19</address>
    <latitude>56.10578</latitude>
    <longtitude>47.46516</longtitude>
    <name>21123</name>
    <country>RU</country>
    <phone>(8352) 758008</phone>
    <region>Республика Чувашия</region>
  </row>
  <row>
    <address>Цивильский р-н,д. Нюрши, 689й км а.д.,М7,расположена при выезде с трассы Москва-Казань, в сторону д.Нюрши, справа</address>
    <latitude>55.81078</latitude>
    <longtitude>47.59277</longtitude>
    <name>21127</name>
    <country>RU</country>
    <phone>(83545) 4-42-81</phone>
    <region>Республика Чувашия</region>
  </row>
  <row>
    <address>647 км трассы М7, д. Большие Карачуры, ул. Южная, д.2 А </address>
    <latitude>56.076667</latitude>
    <longtitude>47.181967</longtitude>
    <name>21138</name>
    <country>RU</country>
    <phone>(8352) 507994</phone>
    <region>Республика Чувашия</region>
  </row>
  <row>
    <address>21 км трассы Цивильск-Ульяновск, Канашский р-н, д. Кошноруй</address>
    <latitude>55.680625</latitude>
    <longtitude>47.430822</longtitude>
    <name>21150</name>
    <country>RU</country>
    <phone>(83533) 67-4-15</phone>
    <region>Республика Чувашия</region>
  </row>
  <row>
    <address>660 км, д. Чиршкасы ул. Шоссейная, 1 Чебоксарский р-н </address>
    <latitude>56.007643</latitude>
    <longtitude>47.320089</longtitude>
    <name>21152</name>
    <country>RU</country>
    <phone>(83540) 2-22-82</phone>
    <region>Республика Чувашия</region>
  </row>
  <row>
    <address>115 км трассы Цивильск- Ульяновск, с. Шемурша, ул. Автовокзальная, д.2, Шемуршинский р-н </address>
    <latitude>54.886732</latitude>
    <longtitude>47.539245</longtitude>
    <name>21153</name>
    <country>RU</country>
    <phone>(83546) 23139</phone>
    <region>Республика Чувашия</region>
  </row>
  <row>
    <address>г. Канаш, ул. Железнодорожная, д.139, напротив Железнодорожного вокзала </address>
    <latitude>55.513229</latitude>
    <longtitude>47.484173</longtitude>
    <name>21161</name>
    <country>RU</country>
    <phone>(83533) 2-07-94</phone>
    <region>Республика Чувашия</region>
  </row>
  <row>
